{
    "success": {
        "v": 2,
        "license": "CC-BY 4.0",
        "data": [
            {
                "col_id": 2,
                "col_name": "Madison Co, Alabama",
                "col_group": "Southern Appalachians",
                "col_group_id": 17,
                "group_col_id": "1.00",
                "lat": "34.85300",
                "lng": "-86.56200",
                "col_area": "6345.4",
                "project_id": 1,
                "col_type": "column",
                "refs": [
                    1
                ]
            },
            {
                "col_id": 3,
                "col_name": "Jackson County, Alabama",
                "col_group": "Southern Appalachians",
                "col_group_id": 17,
                "group_col_id": "2.00",
                "lat": "34.83200",
                "lng": "-85.78200",
                "col_area": "4134.0",
                "project_id": 1,
                "col_type": "column",
                "refs": [
                    1
                ]
            },
            {
                "col_id": 4,
                "col_name": "Blount County, Alabama",
                "col_group": "Southern Appalachians",
                "col_group_id": 17,
                "group_col_id": "3.00",
                "lat": "33.99800",
                "lng": "-86.55000",
                "col_area": "2726.5",
                "project_id": 1,
                "col_type": "column",
                "refs": [
                    1
                ]
            },
            {
                "col_id": 5,
                "col_name": "Dekalb & Western Etowah Counties, Alabama",
                "col_group": "Southern Appalachians",
                "col_group_id": 17,
                "group_col_id": "4.00",
                "lat": "34.35400",
                "lng": "-86.07900",
                "col_area": "3339.3",
                "project_id": 1,
                "col_type": "column",
                "refs": [
                    1
                ]
            },
            {
                "col_id": 6,
                "col_name": "Western Valley & Ridge, Northern Segment, Alabama",
                "col_group": "Southern Appalachians",
                "col_group_id": 17,
                "group_col_id": "5.00",
                "lat": "34.20900",
                "lng": "-85.59900",
                "col_area": "3863.2",
                "project_id": 1,
                "col_type": "column",
                "refs": [
                    1
                ]
            },
            {
                "col_id": 7,
                "col_name": "Eastern Valley and Ridge, Northern Segment, Alabama",
                "col_group": "Southern Appalachians",
                "col_group_id": 17,
                "group_col_id": "6.00",
                "lat": "33.71700",
                "lng": "-86.15600",
                "col_area": "3708.0",
                "project_id": 1,
                "col_type": "column",
                "refs": [
                    1
                ]
            },
            {
                "col_id": 8,
                "col_name": "Western Valley & Ridge, Southern Segment, Alabama",
                "col_group": "Southern Appalachians",
                "col_group_id": 17,
                "group_col_id": "7.00",
                "lat": "33.66200",
                "lng": "-86.78600",
                "col_area": "4713.7",
                "project_id": 1,
                "col_type": "column",
                "refs": [
                    1
                ]
            },
            {
                "col_id": 9,
                "col_name": "Eastern Valley & Ridge, Southern Segment, Alabama",
                "col_group": "Southern Appalachians",
                "col_group_id": 17,
                "group_col_id": "8.00",
                "lat": "33.16500",
                "lng": "-87.30400",
                "col_area": "17966.6",
                "project_id": 1,
                "col_type": "column",
                "refs": [
                    1
                ]
            },
            {
                "col_id": 10,
                "col_name": "Northwestern Valley & Ridge & Plateau, Georgia",
                "col_group": "Southern Appalachians",
                "col_group_id": 17,
                "group_col_id": "9.00",
                "lat": "34.72500",
                "lng": "-85.30000",
                "col_area": "4813.1",
                "project_id": 1,
                "col_type": "column",
                "refs": [
                    1
                ]
            },
            {
                "col_id": 11,
                "col_name": "Southeastern Valley & Ridge, Georgia",
                "col_group": "Southern Appalachians",
                "col_group_id": 17,
                "group_col_id": "10.00",
                "lat": "34.50300",
                "lng": "-85.00000",
                "col_area": "3954.6",
                "project_id": 1,
                "col_type": "column",
                "refs": [
                    1
                ]
            },
            {
                "col_id": 12,
                "col_name": "Cumberland Plateau & Adjacent Areas, Tennessee",
                "col_group": "Southern Appalachians",
                "col_group_id": 17,
                "group_col_id": "11.00",
                "lat": "36.01100",
                "lng": "-84.92400",
                "col_area": "15407.2",
                "project_id": 1,
                "col_type": "column",
                "refs": [
                    1
                ]
            },
            {
                "col_id": 13,
                "col_name": "Pine Mountain Overthrust & Adjacent Areas, Tennessee",
                "col_group": "Southern Appalachians",
                "col_group_id": 17,
                "group_col_id": "12.00",
                "lat": "36.45000",
                "lng": "-83.57500",
                "col_area": "6650.1",
                "project_id": 1,
                "col_type": "column",
                "refs": [
                    1
                ]
            },
            {
                "col_id": 14,
                "col_name": "Northern Unaka Mountains & Adjacent Valley & Ridge, Tennessee",
                "col_group": "Southern Appalachians",
                "col_group_id": 17,
                "group_col_id": "14.00",
                "lat": "36.30800",
                "lng": "-82.48300",
                "col_area": "6516.7",
                "project_id": 1,
                "col_type": "column",
                "refs": [
                    1
                ]
            },
            {
                "col_id": 15,
                "col_name": "Southern Unaka Mountains and Adjacent Valley & Ridge, Tennessee",
                "col_group": "Southern Appalachians",
                "col_group_id": 17,
                "group_col_id": "15.00",
                "lat": "35.91600",
                "lng": "-83.71600",
                "col_area": "6014.0",
                "project_id": 1,
                "col_type": "column",
                "refs": [
                    1
                ]
            },
            {
                "col_id": 16,
                "col_name": "Valley & Ridge, Tennessee",
                "col_group": "Southern Appalachians",
                "col_group_id": 17,
                "group_col_id": "13.00",
                "lat": "36.33300",
                "lng": "-83.06600",
                "col_area": "2825.0",
                "project_id": 1,
                "col_type": "column",
                "refs": [
                    1
                ]
            },
            {
                "col_id": 17,
                "col_name": "South-central, Ohio",
                "col_group": "Southern Appalachians",
                "col_group_id": 17,
                "group_col_id": "16.00",
                "lat": "39.39700",
                "lng": "-82.82800",
                "col_area": "13348.1",
                "project_id": 1,
                "col_type": "column",
                "refs": [
                    1
                ]
            },
            {
                "col_id": 18,
                "col_name": "Northeastern Kentucky",
                "col_group": "Southern Appalachians",
                "col_group_id": 17,
                "group_col_id": "17.00",
                "lat": "38.50000",
                "lng": "-83.05000",
                "col_area": "12817.5",
                "project_id": 1,
                "col_type": "column",
                "refs": [
                    1
                ]
            },
            {
                "col_id": 19,
                "col_name": "Eastern Kentucky",
                "col_group": "Southern Appalachians",
                "col_group_id": 17,
                "group_col_id": "18.00",
                "lat": "37.57900",
                "lng": "-83.00100",
                "col_area": "8705.3",
                "project_id": 1,
                "col_type": "column",
                "refs": [
                    1
                ]
            },
            {
                "col_id": 20,
                "col_name": "Southeastern Kentucky: North of Pine Mtn",
                "col_group": "Southern Appalachians",
                "col_group_id": 17,
                "group_col_id": "19.00",
                "lat": "36.98000",
                "lng": "-83.22000",
                "col_area": "4162.6",
                "project_id": 1,
                "col_type": "column",
                "refs": [
                    1
                ]
            },
            {
                "col_id": 21,
                "col_name": "Lee County, Virginia",
                "col_group": "Southern Appalachians",
                "col_group_id": 17,
                "group_col_id": "20.00",
                "lat": "36.73500",
                "lng": "-82.92500",
                "col_area": "2435.6",
                "project_id": 1,
                "col_type": "column",
                "refs": [
                    1
                ]
            },
            {
                "col_id": 22,
                "col_name": "Northern Part Chautauqua Platform",
                "col_group": "Texas-Oklahoma Tectonic Region",
                "col_group_id": 20,
                "group_col_id": "1.00",
                "lat": "36.58300",
                "lng": "-96.43400",
                "col_area": "26764.6",
                "project_id": 1,
                "col_type": "column",
                "refs": [
                    1
                ]
            },
            {
                "col_id": 23,
                "col_name": "Appalachian Plateau, Virginia",
                "col_group": "Southern Appalachians",
                "col_group_id": 17,
                "group_col_id": "21.00",
                "lat": "37.30000",
                "lng": "-82.11600",
                "col_area": "5536.0",
                "project_id": 1,
                "col_type": "column",
                "refs": [
                    1
                ]
            },
            {
                "col_id": 24,
                "col_name": "Southern Part Chautauqua Platform",
                "col_group": "Texas-Oklahoma Tectonic Region",
                "col_group_id": 20,
                "group_col_id": "2.00",
                "lat": "35.58300",
                "lng": "-96.24800",
                "col_area": "18076.3",
                "project_id": 1,
                "col_type": "column",
                "refs": [
                    1
                ]
            },
            {
                "col_id": 25,
                "col_name": "Scott and Russell Counties, Virginia",
                "col_group": "Southern Appalachians",
                "col_group_id": 17,
                "group_col_id": "22.00",
                "lat": "36.77800",
                "lng": "-82.35600",
                "col_area": "2889.7",
                "project_id": 1,
                "col_type": "column",
                "refs": [
                    1
                ]
            },
            {
                "col_id": 26,
                "col_name": "Lehigh Basin Portion of Arkoma Basin",
                "col_group": "Texas-Oklahoma Tectonic Region",
                "col_group_id": 20,
                "group_col_id": "3.00",
                "lat": "34.72300",
                "lng": "-96.45800",
                "col_area": "13344.3",
                "project_id": 1,
                "col_type": "column",
                "refs": [
                    1
                ]
            },
            {
                "col_id": 27,
                "col_name": "Washington & Smyth Counties, Virginia: West of Pulaski Fault",
                "col_group": "Southern Appalachians",
                "col_group_id": 17,
                "group_col_id": "23.00",
                "lat": "36.81700",
                "lng": "-81.94400",
                "col_area": "2773.6",
                "project_id": 1,
                "col_type": "column",
                "refs": [
                    1
                ]
            },
            {
                "col_id": 28,
                "col_name": "Western Anticline Belt (southern half), Virginia",
                "col_group": "Southern Appalachians",
                "col_group_id": 17,
                "group_col_id": "24.00",
                "lat": "37.13300",
                "lng": "-81.46600",
                "col_area": "3176.8",
                "project_id": 1,
                "col_type": "column",
                "refs": [
                    1
                ]
            },
            {
                "col_id": 31,
                "col_name": "Eastern Wisconsin",
                "col_group": "Midwestern Basins and Arches",
                "col_group_id": 6,
                "group_col_id": "1.00",
                "lat": "43.73300",
                "lng": "-87.84500",
                "col_area": "27548.8",
                "project_id": 1,
                "col_type": "column",
                "refs": [
                    1
                ]
            },
            {
                "col_id": 32,
                "col_name": "Southern Coal Basin, West Virginia",
                "col_group": "Northern Appalachians",
                "col_group_id": 9,
                "group_col_id": "1.00",
                "lat": "38.00000",
                "lng": "-81.61100",
                "col_area": "10739.4",
                "project_id": 1,
                "col_type": "column",
                "refs": [
                    1
                ]
            },
            {
                "col_id": 33,
                "col_name": "Sioux/Lyons Counties, Iowa",
                "col_group": "Midcontinent",
                "col_group_id": 7,
                "group_col_id": "1.00",
                "lat": "43.26700",
                "lng": "-96.15200",
                "col_area": "8337.9",
                "project_id": 1,
                "col_type": "column",
                "refs": [
                    1
                ]
            },
            {
                "col_id": 35,
                "col_name": "Plomosa and Dome Rock Mountains Area",
                "col_group": "Southwest Mid-Continent",
                "col_group_id": 19,
                "group_col_id": "1.00",
                "lat": "33.59100",
                "lng": "-114.06100",
                "col_area": "60048.7",
                "project_id": 1,
                "col_type": "column",
                "refs": [
                    1
                ]
            },
            {
                "col_id": 36,
                "col_name": "Barrow - Drew Point",
                "col_group": "Northern Alaska",
                "col_group_id": 8,
                "group_col_id": "1.00",
                "lat": "70.64400",
                "lng": "-154.58300",
                "col_area": "27287.5",
                "project_id": 1,
                "col_type": "column",
                "refs": [
                    1
                ]
            },
            {
                "col_id": 37,
                "col_name": "Wythe and Pulaski Counties, Virginia: West of Pulaski Fault",
                "col_group": "Southern Appalachians",
                "col_group_id": 17,
                "group_col_id": "25.00",
                "lat": "37.01800",
                "lng": "-81.23100",
                "col_area": "2729.2",
                "project_id": 1,
                "col_type": "column",
                "refs": [
                    1
                ]
            },
            {
                "col_id": 38,
                "col_name": "Montgomery and Roanoke Counties, Virginia: West of Pulaski Fault",
                "col_group": "Southern Appalachians",
                "col_group_id": 17,
                "group_col_id": "26.00",
                "lat": "37.23800",
                "lng": "-80.55500",
                "col_area": "2426.8",
                "project_id": 1,
                "col_type": "column",
                "refs": [
                    1
                ]
            },
            {
                "col_id": 39,
                "col_name": "Basin Center, West Virginia",
                "col_group": "Northern Appalachians",
                "col_group_id": 9,
                "group_col_id": "2.00",
                "lat": "38.44500",
                "lng": "-80.98600",
                "col_area": "8320.5",
                "project_id": 1,
                "col_type": "column",
                "refs": [
                    1
                ]
            },
            {
                "col_id": 40,
                "col_name": "Southeast Valley & Ridge, West Virginia",
                "col_group": "Northern Appalachians",
                "col_group_id": 9,
                "group_col_id": "3.00",
                "lat": "37.74100",
                "lng": "-80.60800",
                "col_area": "5425.7",
                "project_id": 1,
                "col_type": "column",
                "refs": [
                    1
                ]
            },
            {
                "col_id": 41,
                "col_name": "Highland to Craig County, Virginia",
                "col_group": "Northern Appalachians",
                "col_group_id": 9,
                "group_col_id": "4.00",
                "lat": "38.09200",
                "lng": "-79.77200",
                "col_area": "5738.1",
                "project_id": 1,
                "col_type": "column",
                "refs": [
                    1
                ]
            },
            {
                "col_id": 42,
                "col_name": "Rockbridge & Botetourt Counties, Virginia - West of Pulaski Fault",
                "col_group": "Northern Appalachians",
                "col_group_id": 9,
                "group_col_id": "5.00",
                "lat": "37.52700",
                "lng": "-80.03500",
                "col_area": "2720.5",
                "project_id": 1,
                "col_type": "column",
                "refs": [
                    1
                ]
            },
            {
                "col_id": 43,
                "col_name": "Rockingham & Augusta Counties, Virginia - West of North Mtn Fault",
                "col_group": "Northern Appalachians",
                "col_group_id": 9,
                "group_col_id": "6.00",
                "lat": "38.43800",
                "lng": "-79.15800",
                "col_area": "3578.2",
                "project_id": 1,
                "col_type": "column",
                "refs": [
                    1
                ]
            },
            {
                "col_id": 44,
                "col_name": "Southeastern Ohio",
                "col_group": "Northern Appalachians",
                "col_group_id": 9,
                "group_col_id": "7.00",
                "lat": "39.89400",
                "lng": "-81.76000",
                "col_area": "10930.1",
                "project_id": 1,
                "col_type": "column",
                "refs": [
                    1
                ]
            },
            {
                "col_id": 45,
                "col_name": "Dunkard Basin, West Virginia",
                "col_group": "Northern Appalachians",
                "col_group_id": 9,
                "group_col_id": "8.00",
                "lat": "39.34300",
                "lng": "-80.96100",
                "col_area": "10998.4",
                "project_id": 1,
                "col_type": "column",
                "refs": [
                    1
                ]
            },
            {
                "col_id": 46,
                "col_name": "High Plateau, West Virginia",
                "col_group": "Northern Appalachians",
                "col_group_id": 9,
                "group_col_id": "9.00",
                "lat": "39.14100",
                "lng": "-80.07500",
                "col_area": "9995.4",
                "project_id": 1,
                "col_type": "column",
                "refs": [
                    1
                ]
            },
            {
                "col_id": 48,
                "col_name": "Southern Papago Reservation",
                "col_group": "Southwest Mid-Continent",
                "col_group_id": 19,
                "group_col_id": "2.00",
                "lat": "32.25200",
                "lng": "-111.66500",
                "col_area": "48450.0",
                "project_id": 1,
                "col_type": "column",
                "refs": [
                    1
                ]
            },
            {
                "col_id": 49,
                "col_name": "Sonoita Area",
                "col_group": "Southwest Mid-Continent",
                "col_group_id": 19,
                "group_col_id": "3.00",
                "lat": "31.62000",
                "lng": "-110.15000",
                "col_area": "33159.3",
                "project_id": 1,
                "col_type": "column",
                "refs": [
                    1
                ]
            },
            {
                "col_id": 50,
                "col_name": "Big Hatchet Mountain Area",
                "col_group": "Southwest Mid-Continent",
                "col_group_id": 19,
                "group_col_id": "4.00",
                "lat": "31.66600",
                "lng": "-108.40000",
                "col_area": "18314.1",
                "project_id": 1,
                "col_type": "column",
                "refs": [
                    1
                ]
            },
            {
                "col_id": 52,
                "col_name": "Lone Mountain Area",
                "col_group": "Southwest Mid-Continent",
                "col_group_id": 19,
                "group_col_id": "6.00",
                "lat": "32.48300",
                "lng": "-108.25800",
                "col_area": "20334.9",
                "project_id": 1,
                "col_type": "column",
                "refs": [
                    1
                ]
            },
            {
                "col_id": 53,
                "col_name": "Black Range",
                "col_group": "Southwest Mid-Continent",
                "col_group_id": 19,
                "group_col_id": "7.00",
                "lat": "33.07500",
                "lng": "-107.50000",
                "col_area": "12271.1",
                "project_id": 1,
                "col_type": "column",
                "refs": [
                    1
                ]
            },
            {
                "col_id": 55,
                "col_name": "Organ Mountain Southern San Andres Mountain",
                "col_group": "Southwest Mid-Continent",
                "col_group_id": 19,
                "group_col_id": "9.00",
                "lat": "32.61300",
                "lng": "-106.42100",
                "col_area": "8202.5",
                "project_id": 1,
                "col_type": "column",
                "refs": [
                    1
                ]
            },
            {
                "col_id": 58,
                "col_name": "Marathon - Big Bend Region",
                "col_group": "Southwest Mid-Continent",
                "col_group_id": 19,
                "group_col_id": "11.00",
                "lat": "29.58500",
                "lng": "-103.36600",
                "col_area": "29165.6",
                "project_id": 1,
                "col_type": "column",
                "refs": [
                    1
                ]
            },
            {
                "col_id": 60,
                "col_name": "Quemado Fence Lake Area",
                "col_group": "Southwest Mid-Continent",
                "col_group_id": 19,
                "group_col_id": "13.00",
                "lat": "34.21600",
                "lng": "-108.39500",
                "col_area": "27521.3",
                "project_id": 1,
                "col_type": "column",
                "refs": [
                    1
                ]
            },
            {
                "col_id": 62,
                "col_name": "Carthage-Joyita Hill Area",
                "col_group": "Southwest Mid-Continent",
                "col_group_id": 19,
                "group_col_id": "15.00",
                "lat": "33.80800",
                "lng": "-106.80200",
                "col_area": "11342.6",
                "project_id": 1,
                "col_type": "column",
                "refs": [
                    1
                ]
            },
            {
                "col_id": 63,
                "col_name": "Northern San Andres Mountains",
                "col_group": "Southwest Mid-Continent",
                "col_group_id": 19,
                "group_col_id": "16.00",
                "lat": "33.23500",
                "lng": "-106.64200",
                "col_area": "6605.0",
                "project_id": 1,
                "col_type": "column",
                "refs": [
                    1
                ]
            },
            {
                "col_id": 65,
                "col_name": "Carlsbad and Northern Shelf",
                "col_group": "Southwest Mid-Continent",
                "col_group_id": 19,
                "group_col_id": "18.00",
                "lat": "32.35500",
                "lng": "-104.17800",
                "col_area": "21309.1",
                "project_id": 1,
                "col_type": "column",
                "refs": [
                    1
                ]
            },
            {
                "col_id": 67,
                "col_name": "Central Basin Platform",
                "col_group": "Southwest Mid-Continent",
                "col_group_id": 19,
                "group_col_id": "20.00",
                "lat": "32.35200",
                "lng": "-102.27000",
                "col_area": "25463.7",
                "project_id": 1,
                "col_type": "column",
                "refs": [
                    1
                ]
            },
            {
                "col_id": 68,
                "col_name": "Midland Basin",
                "col_group": "Southwest Mid-Continent",
                "col_group_id": 19,
                "group_col_id": "21.00",
                "lat": "31.70600",
                "lng": "-101.77500",
                "col_area": "20931.7",
                "project_id": 1,
                "col_type": "column",
                "refs": [
                    1
                ]
            },
            {
                "col_id": 69,
                "col_name": "Eastern Shelf",
                "col_group": "Southwest Mid-Continent",
                "col_group_id": 19,
                "group_col_id": "22.00",
                "lat": "31.90800",
                "lng": "-100.61600",
                "col_area": "27463.0",
                "project_id": 1,
                "col_type": "column",
                "refs": [
                    1
                ]
            },
            {
                "col_id": 70,
                "col_name": "Northwest Shelf",
                "col_group": "Southwest Mid-Continent",
                "col_group_id": 19,
                "group_col_id": "23.00",
                "lat": "33.77900",
                "lng": "-104.01600",
                "col_area": "43060.7",
                "project_id": 1,
                "col_type": "column",
                "refs": [
                    1
                ]
            },
            {
                "col_id": 73,
                "col_name": "Amarillo Arch",
                "col_group": "Southwest Mid-Continent",
                "col_group_id": 19,
                "group_col_id": "26.00",
                "lat": "35.50000",
                "lng": "-101.57800",
                "col_area": "27171.2",
                "project_id": 1,
                "col_type": "column",
                "refs": [
                    1
                ]
            },
            {
                "col_id": 74,
                "col_name": "Western Oklahoma",
                "col_group": "Southwest Mid-Continent",
                "col_group_id": 19,
                "group_col_id": "27.00",
                "lat": "35.93600",
                "lng": "-99.25100",
                "col_area": "41760.4",
                "project_id": 1,
                "col_type": "column",
                "refs": [
                    1
                ]
            },
            {
                "col_id": 75,
                "col_name": "Texas Panhandle",
                "col_group": "Southwest Mid-Continent",
                "col_group_id": 19,
                "group_col_id": "28.00",
                "lat": "36.38000",
                "lng": "-100.88600",
                "col_area": "23792.1",
                "project_id": 1,
                "col_type": "column",
                "refs": [
                    1
                ]
            },
            {
                "col_id": 77,
                "col_name": "Las Animas Arch-colorado",
                "col_group": "Southwest Mid-Continent",
                "col_group_id": 19,
                "group_col_id": "30.00",
                "lat": "38.28300",
                "lng": "-102.56600",
                "col_area": "26870.7",
                "project_id": 1,
                "col_type": "column",
                "refs": [
                    1
                ]
            },
            {
                "col_id": 78,
                "col_name": "Las Animas Arch-kansas",
                "col_group": "Southwest Mid-Continent",
                "col_group_id": 19,
                "group_col_id": "31.00",
                "lat": "39.47600",
                "lng": "-101.17500",
                "col_area": "28375.1",
                "project_id": 1,
                "col_type": "column",
                "refs": [
                    1
                ]
            },
            {
                "col_id": 79,
                "col_name": "Plymouth/Cheeroke Counties, Iowa",
                "col_group": "Midcontinent",
                "col_group_id": 7,
                "group_col_id": "2.00",
                "lat": "42.73800",
                "lng": "-95.85000",
                "col_area": "12599.0",
                "project_id": 1,
                "col_type": "column",
                "refs": [
                    1
                ]
            },
            {
                "col_id": 80,
                "col_name": "Webster County, Iowa",
                "col_group": "Midcontinent",
                "col_group_id": 7,
                "group_col_id": "3.00",
                "lat": "42.51100",
                "lng": "-94.24100",
                "col_area": "21693.3",
                "project_id": 1,
                "col_type": "column",
                "refs": [
                    1
                ]
            },
            {
                "col_id": 81,
                "col_name": "Butler County, Iowa",
                "col_group": "Midcontinent",
                "col_group_id": 7,
                "group_col_id": "4.00",
                "lat": "42.75100",
                "lng": "-92.79800",
                "col_area": "16088.8",
                "project_id": 1,
                "col_type": "column",
                "refs": [
                    1
                ]
            },
            {
                "col_id": 82,
                "col_name": "Linn/Benton Counties, Iowa",
                "col_group": "Midcontinent",
                "col_group_id": 7,
                "group_col_id": "5.00",
                "lat": "42.07000",
                "lng": "-91.82800",
                "col_area": "18972.0",
                "project_id": 1,
                "col_type": "column",
                "refs": [
                    1
                ]
            },
            {
                "col_id": 83,
                "col_name": "Des Moines County, Iowa",
                "col_group": "Midcontinent",
                "col_group_id": 7,
                "group_col_id": "6.00",
                "lat": "40.96600",
                "lng": "-91.17000",
                "col_area": "21391.2",
                "project_id": 1,
                "col_type": "column",
                "refs": [
                    1
                ]
            },
            {
                "col_id": 84,
                "col_name": "Sheridan County, Nebraska",
                "col_group": "Midcontinent",
                "col_group_id": 7,
                "group_col_id": "7.00",
                "lat": "42.55100",
                "lng": "-102.35400",
                "col_area": "44069.3",
                "project_id": 1,
                "col_type": "column",
                "refs": [
                    1
                ]
            },
            {
                "col_id": 86,
                "col_name": "Stanton County, Nebraska",
                "col_group": "Midcontinent",
                "col_group_id": 7,
                "group_col_id": "9.00",
                "lat": "41.95000",
                "lng": "-97.33300",
                "col_area": "30143.8",
                "project_id": 1,
                "col_type": "column",
                "refs": [
                    1
                ]
            },
            {
                "col_id": 88,
                "col_name": "Harrison/Pottawattomie Counties, Iowa",
                "col_group": "Midcontinent",
                "col_group_id": 7,
                "group_col_id": "11.00",
                "lat": "41.58200",
                "lng": "-95.62600",
                "col_area": "12516.0",
                "project_id": 1,
                "col_type": "column",
                "refs": [
                    1
                ]
            },
            {
                "col_id": 89,
                "col_name": "Dallas/Madison Counties, Iowa",
                "col_group": "Midcontinent",
                "col_group_id": 7,
                "group_col_id": "12.00",
                "lat": "41.54300",
                "lng": "-94.03100",
                "col_area": "19038.3",
                "project_id": 1,
                "col_type": "column",
                "refs": [
                    1
                ]
            },
            {
                "col_id": 90,
                "col_name": "Appanoose County, Iowa",
                "col_group": "Midcontinent",
                "col_group_id": 7,
                "group_col_id": "13.00",
                "lat": "40.72100",
                "lng": "-92.91300",
                "col_area": "28777.4",
                "project_id": 1,
                "col_type": "column",
                "refs": [
                    1
                ]
            },
            {
                "col_id": 91,
                "col_name": "Marion County, Missouri",
                "col_group": "Midcontinent",
                "col_group_id": 7,
                "group_col_id": "14.00",
                "lat": "39.82800",
                "lng": "-91.62500",
                "col_area": "16719.8",
                "project_id": 1,
                "col_type": "column",
                "refs": [
                    1
                ]
            },
            {
                "col_id": 92,
                "col_name": "Redwillow County, Nebraska",
                "col_group": "Midcontinent",
                "col_group_id": 7,
                "group_col_id": "15.00",
                "lat": "40.23100",
                "lng": "-100.42300",
                "col_area": "35932.7",
                "project_id": 1,
                "col_type": "column",
                "refs": [
                    1
                ]
            },
            {
                "col_id": 93,
                "col_name": "Ellis/trego Counties, Kansas",
                "col_group": "Midcontinent",
                "col_group_id": 7,
                "group_col_id": "16.00",
                "lat": "38.92800",
                "lng": "-99.59500",
                "col_area": "23182.1",
                "project_id": 1,
                "col_type": "column",
                "refs": [
                    1
                ]
            },
            {
                "col_id": 98,
                "col_name": "Northern Arctic National Wildlife Refuge",
                "col_group": "Northern Alaska",
                "col_group_id": 8,
                "group_col_id": "6.00",
                "lat": "69.79300",
                "lng": "-143.47900",
                "col_area": "14144.5",
                "project_id": 1,
                "col_type": "column",
                "refs": [
                    1
                ]
            },
            {
                "col_id": 99,
                "col_name": "Mitchell County, Kansas",
                "col_group": "Midcontinent",
                "col_group_id": 7,
                "group_col_id": "17.00",
                "lat": "39.44800",
                "lng": "-98.24900",
                "col_area": "31959.9",
                "project_id": 1,
                "col_type": "column",
                "refs": [
                    1
                ]
            },
            {
                "col_id": 100,
                "col_name": "Pottawotomie County, Kansas",
                "col_group": "Midcontinent",
                "col_group_id": 7,
                "group_col_id": "18.00",
                "lat": "39.36000",
                "lng": "-96.60000",
                "col_area": "15671.5",
                "project_id": 1,
                "col_type": "column",
                "refs": [
                    1
                ]
            },
            {
                "col_id": 101,
                "col_name": "Jackson County, Kansas",
                "col_group": "Midcontinent",
                "col_group_id": 7,
                "group_col_id": "19.00",
                "lat": "39.44600",
                "lng": "-95.77300",
                "col_area": "18752.7",
                "project_id": 1,
                "col_type": "column",
                "refs": [
                    1
                ]
            },
            {
                "col_id": 102,
                "col_name": "Pawnee County, Nebraska",
                "col_group": "Midcontinent",
                "col_group_id": 7,
                "group_col_id": "20.00",
                "lat": "40.21200",
                "lng": "-96.39300",
                "col_area": "13949.8",
                "project_id": 1,
                "col_type": "column",
                "refs": [
                    1
                ]
            },
            {
                "col_id": 103,
                "col_name": "Atchinson County, Missouri",
                "col_group": "Midcontinent",
                "col_group_id": 7,
                "group_col_id": "21.00",
                "lat": "40.43300",
                "lng": "-95.40800",
                "col_area": "19300.6",
                "project_id": 1,
                "col_type": "column",
                "refs": [
                    1
                ]
            },
            {
                "col_id": 105,
                "col_name": "Perry County, Missouri",
                "col_group": "Midcontinent",
                "col_group_id": 7,
                "group_col_id": "23.00",
                "lat": "37.71900",
                "lng": "-89.86600",
                "col_area": "31312.4",
                "project_id": 1,
                "col_type": "column",
                "refs": [
                    1
                ]
            },
            {
                "col_id": 107,
                "col_name": "Kingman County, Kansas",
                "col_group": "Midcontinent",
                "col_group_id": 7,
                "group_col_id": "25.00",
                "lat": "37.43600",
                "lng": "-98.23100",
                "col_area": "24147.3",
                "project_id": 1,
                "col_type": "column",
                "refs": [
                    1
                ]
            },
            {
                "col_id": 108,
                "col_name": "Butler County, Kansas",
                "col_group": "Midcontinent",
                "col_group_id": 7,
                "group_col_id": "26.00",
                "lat": "37.76600",
                "lng": "-96.75100",
                "col_area": "24896.4",
                "project_id": 1,
                "col_type": "column",
                "refs": [
                    1
                ]
            },
            {
                "col_id": 112,
                "col_name": "Northern Coastal Plain",
                "col_group": "Atlantic Coastal Plain",
                "col_group_id": 1,
                "group_col_id": "19.00",
                "lat": "38.76600",
                "lng": "-77.30800",
                "col_area": "3616.4",
                "project_id": 1,
                "col_type": "column",
                "refs": [
                    1
                ]
            },
            {
                "col_id": 113,
                "col_name": "Northern Neck Peninsula",
                "col_group": "Atlantic Coastal Plain",
                "col_group_id": 1,
                "group_col_id": "20.00",
                "lat": "37.99100",
                "lng": "-76.63300",
                "col_area": "5619.2",
                "project_id": 1,
                "col_type": "column",
                "refs": [
                    1
                ]
            },
            {
                "col_id": 116,
                "col_name": "Middle Peninsula",
                "col_group": "Atlantic Coastal Plain",
                "col_group_id": 1,
                "group_col_id": "21.00",
                "lat": "38.00000",
                "lng": "-77.18300",
                "col_area": "6085.9",
                "project_id": 1,
                "col_type": "column",
                "refs": [
                    1
                ]
            },
            {
                "col_id": 117,
                "col_name": "South Bank of James River",
                "col_group": "Atlantic Coastal Plain",
                "col_group_id": 1,
                "group_col_id": "23.00",
                "lat": "37.12500",
                "lng": "-77.00000",
                "col_area": "3397.8",
                "project_id": 1,
                "col_type": "column",
                "refs": [
                    1
                ]
            },
            {
                "col_id": 118,
                "col_name": "York-james Peninsula",
                "col_group": "Atlantic Coastal Plain",
                "col_group_id": 1,
                "group_col_id": "22.00",
                "lat": "37.46600",
                "lng": "-76.96600",
                "col_area": "4235.7",
                "project_id": 1,
                "col_type": "column",
                "refs": [
                    1
                ]
            },
            {
                "col_id": 119,
                "col_name": "Southwestern Coastal Plain",
                "col_group": "Atlantic Coastal Plain",
                "col_group_id": 1,
                "group_col_id": "24.00",
                "lat": "36.86600",
                "lng": "-77.31200",
                "col_area": "10565.8",
                "project_id": 1,
                "col_type": "column",
                "refs": [
                    1
                ]
            },
            {
                "col_id": 120,
                "col_name": "Southeastern Coastal Plain",
                "col_group": "Atlantic Coastal Plain",
                "col_group_id": 1,
                "group_col_id": "25.00",
                "lat": "36.71600",
                "lng": "-76.23300",
                "col_area": "9074.7",
                "project_id": 1,
                "col_type": "column",
                "refs": [
                    1
                ]
            },
            {
                "col_id": 122,
                "col_name": "Murfreesboro",
                "col_group": "Atlantic Coastal Plain",
                "col_group_id": 1,
                "group_col_id": "27.00",
                "lat": "36.32500",
                "lng": "-77.14000",
                "col_area": "6514.5",
                "project_id": 1,
                "col_type": "column",
                "refs": [
                    1
                ]
            },
            {
                "col_id": 126,
                "col_name": "Farmville",
                "col_group": "Atlantic Coastal Plain",
                "col_group_id": 1,
                "group_col_id": "31.00",
                "lat": "35.60700",
                "lng": "-77.55900",
                "col_area": "9752.8",
                "project_id": 1,
                "col_type": "column",
                "refs": [
                    1
                ]
            },
            {
                "col_id": 127,
                "col_name": "Inner Coastal Plain",
                "col_group": "Atlantic Coastal Plain",
                "col_group_id": 1,
                "group_col_id": "32.00",
                "lat": "35.28300",
                "lng": "-77.93300",
                "col_area": "15029.5",
                "project_id": 1,
                "col_type": "column",
                "refs": [
                    1
                ]
            },
            {
                "col_id": 128,
                "col_name": "Cape Lookout",
                "col_group": "Atlantic Coastal Plain",
                "col_group_id": 1,
                "group_col_id": "33.00",
                "lat": "34.60800",
                "lng": "-76.53500",
                "col_area": "12473.9",
                "project_id": 1,
                "col_type": "column",
                "refs": [
                    1
                ]
            },
            {
                "col_id": 143,
                "col_name": "Surf City",
                "col_group": "Atlantic Coastal Plain",
                "col_group_id": 1,
                "group_col_id": "34.00",
                "lat": "34.43000",
                "lng": "-77.56300",
                "col_area": "18340.2",
                "project_id": 1,
                "col_type": "column",
                "refs": [
                    1
                ]
            },
            {
                "col_id": 148,
                "col_name": "Mcalester Basin Portion of Arkoma Basin",
                "col_group": "Texas-Oklahoma Tectonic Region",
                "col_group_id": 20,
                "group_col_id": "4.00",
                "lat": "35.07800",
                "lng": "-94.95100",
                "col_area": "23990.7",
                "project_id": 1,
                "col_type": "column",
                "refs": [
                    1
                ]
            },
            {
                "col_id": 152,
                "col_name": "Romanzof - British Mountains",
                "col_group": "Northern Alaska",
                "col_group_id": 8,
                "group_col_id": "10.00",
                "lat": "69.04600",
                "lng": "-142.44600",
                "col_area": "22714.6",
                "project_id": 1,
                "col_type": "column",
                "refs": [
                    1
                ]
            },
            {
                "col_id": 156,
                "col_name": "Garrett County, Maryland",
                "col_group": "Northern Appalachians",
                "col_group_id": 9,
                "group_col_id": "12.00",
                "lat": "39.56100",
                "lng": "-79.25000",
                "col_area": "5804.1",
                "project_id": 1,
                "col_type": "column",
                "refs": [
                    1
                ]
            },
            {
                "col_id": 157,
                "col_name": "Arkansas Basin Portion of Arkoma Basin",
                "col_group": "Texas-Oklahoma Tectonic Region",
                "col_group_id": 20,
                "group_col_id": "5.00",
                "lat": "35.52500",
                "lng": "-92.89500",
                "col_area": "46089.7",
                "project_id": 1,
                "col_type": "column",
                "refs": [
                    1
                ]
            },
            {
                "col_id": 158,
                "col_name": "Central Southern Oklahoma and Southwestern Oklahoma, Southern Oklahoma Fold",
                "col_group": "Texas-Oklahoma Tectonic Region",
                "col_group_id": 20,
                "group_col_id": "6.00",
                "lat": "34.26100",
                "lng": "-97.49500",
                "col_area": "23283.9",
                "project_id": 1,
                "col_type": "column",
                "refs": [
                    1
                ]
            },
            {
                "col_id": 159,
                "col_name": "Cooke and Grayson Counties, Texas, Southern Oklahoma Folded Belt",
                "col_group": "Texas-Oklahoma Tectonic Region",
                "col_group_id": 20,
                "group_col_id": "7.00",
                "lat": "33.45000",
                "lng": "-96.97100",
                "col_area": "21134.2",
                "project_id": 1,
                "col_type": "column",
                "refs": [
                    1
                ]
            },
            {
                "col_id": 160,
                "col_name": "Bend Arch",
                "col_group": "Texas-Oklahoma Tectonic Region",
                "col_group_id": 20,
                "group_col_id": "8.00",
                "lat": "32.62300",
                "lng": "-99.44500",
                "col_area": "18948.2",
                "project_id": 1,
                "col_type": "column",
                "refs": [
                    1
                ]
            },
            {
                "col_id": 161,
                "col_name": "Fort Worth Basin",
                "col_group": "Texas-Oklahoma Tectonic Region",
                "col_group_id": 20,
                "group_col_id": "9.00",
                "lat": "33.36300",
                "lng": "-98.07000",
                "col_area": "19960.0",
                "project_id": 1,
                "col_type": "column",
                "refs": [
                    1
                ]
            },
            {
                "col_id": 162,
                "col_name": "Strawn Basin",
                "col_group": "Texas-Oklahoma Tectonic Region",
                "col_group_id": 20,
                "group_col_id": "10.00",
                "lat": "32.03300",
                "lng": "-98.36600",
                "col_area": "15134.7",
                "project_id": 1,
                "col_type": "column",
                "refs": [
                    1
                ]
            },
            {
                "col_id": 163,
                "col_name": "Llano Uplift",
                "col_group": "Texas-Oklahoma Tectonic Region",
                "col_group_id": 20,
                "group_col_id": "11.00",
                "lat": "31.13300",
                "lng": "-98.74100",
                "col_area": "20869.6",
                "project_id": 1,
                "col_type": "column",
                "refs": [
                    1
                ]
            },
            {
                "col_id": 164,
                "col_name": "Kerr Basin",
                "col_group": "Texas-Oklahoma Tectonic Region",
                "col_group_id": 20,
                "group_col_id": "12.00",
                "lat": "30.30000",
                "lng": "-99.41600",
                "col_area": "22138.2",
                "project_id": 1,
                "col_type": "column",
                "refs": [
                    1
                ]
            },
            {
                "col_id": 165,
                "col_name": "Arkansas and Louisiana Portion of Ouachita Tectonic Belt",
                "col_group": "Texas-Oklahoma Tectonic Region",
                "col_group_id": 20,
                "group_col_id": "13.00",
                "lat": "34.26600",
                "lng": "-93.38300",
                "col_area": "33655.5",
                "project_id": 1,
                "col_type": "column",
                "refs": [
                    1
                ]
            },
            {
                "col_id": 166,
                "col_name": "Oklahoma Portion of Ouachita Tectonic Belt",
                "col_group": "Texas-Oklahoma Tectonic Region",
                "col_group_id": 20,
                "group_col_id": "14.00",
                "lat": "34.33300",
                "lng": "-95.45800",
                "col_area": "18744.6",
                "project_id": 1,
                "col_type": "column",
                "refs": [
                    1
                ]
            },
            {
                "col_id": 169,
                "col_name": "Black Warrior Basin Prentiss County, Mississippi",
                "col_group": "Texas-Oklahoma Tectonic Region",
                "col_group_id": 20,
                "group_col_id": "17.00",
                "lat": "34.63300",
                "lng": "-88.54100",
                "col_area": "19764.8",
                "project_id": 1,
                "col_type": "column",
                "refs": [
                    1
                ]
            },
            {
                "col_id": 172,
                "col_name": "Jackson County (formerly Washabaugh County), South Dakota",
                "col_group": "Northern Mid-Continent",
                "col_group_id": 12,
                "group_col_id": "1.00",
                "lat": "43.51600",
                "lng": "-102.75800",
                "col_area": "23881.4",
                "project_id": 1,
                "col_type": "column",
                "refs": [
                    1
                ]
            },
            {
                "col_id": 173,
                "col_name": "Brule County, South Dakota",
                "col_group": "Northern Mid-Continent",
                "col_group_id": 12,
                "group_col_id": "2.00",
                "lat": "43.65900",
                "lng": "-99.17600",
                "col_area": "36089.5",
                "project_id": 1,
                "col_type": "column",
                "refs": [
                    1
                ]
            },
            {
                "col_id": 174,
                "col_name": "Brown County, South Dakota",
                "col_group": "Northern Mid-Continent",
                "col_group_id": 12,
                "group_col_id": "3.00",
                "lat": "45.57500",
                "lng": "-98.17800",
                "col_area": "33812.8",
                "project_id": 1,
                "col_type": "column",
                "refs": [
                    1
                ]
            },
            {
                "col_id": 175,
                "col_name": "Kittson County, Minnesota",
                "col_group": "Northern Mid-Continent",
                "col_group_id": 12,
                "group_col_id": "4.00",
                "lat": "48.83000",
                "lng": "-96.84100",
                "col_area": "36352.9",
                "project_id": 1,
                "col_type": "column",
                "refs": [
                    1
                ]
            },
            {
                "col_id": 176,
                "col_name": "Union County, South Dakota",
                "col_group": "Northern Mid-Continent",
                "col_group_id": 12,
                "group_col_id": "5.00",
                "lat": "42.91600",
                "lng": "-96.71600",
                "col_area": "11721.6",
                "project_id": 1,
                "col_type": "column",
                "refs": [
                    1
                ]
            },
            {
                "col_id": 177,
                "col_name": "Minnehaha County, South Dakota",
                "col_group": "Northern Mid-Continent",
                "col_group_id": 12,
                "group_col_id": "6.00",
                "lat": "43.69000",
                "lng": "-96.64600",
                "col_area": "21138.6",
                "project_id": 1,
                "col_type": "column",
                "refs": [
                    1
                ]
            },
            {
                "col_id": 178,
                "col_name": "Minnesota River Valley, Big Stone to Nicollet Counties, Minnesota",
                "col_group": "Northern Mid-Continent",
                "col_group_id": 12,
                "group_col_id": "7.00",
                "lat": "44.76700",
                "lng": "-95.42300",
                "col_area": "36116.7",
                "project_id": 1,
                "col_type": "column",
                "refs": [
                    1
                ]
            },
            {
                "col_id": 179,
                "col_name": "Stearns County, Minnesota",
                "col_group": "Northern Mid-Continent",
                "col_group_id": 12,
                "group_col_id": "8.00",
                "lat": "45.61600",
                "lng": "-94.37700",
                "col_area": "25895.1",
                "project_id": 1,
                "col_type": "column",
                "refs": [
                    1
                ]
            },
            {
                "col_id": 181,
                "col_name": "Rainy Lake District, Koochiching County, Minnesota",
                "col_group": "Northern Mid-Continent",
                "col_group_id": 12,
                "group_col_id": "10.00",
                "lat": "48.48300",
                "lng": "-93.10000",
                "col_area": "12214.5",
                "project_id": 1,
                "col_type": "column",
                "refs": [
                    1
                ]
            },
            {
                "col_id": 182,
                "col_name": "West Vermillion District, St. Louis - Lake Counties, Minnesota",
                "col_group": "Northern Mid-Continent",
                "col_group_id": 12,
                "group_col_id": "11.00",
                "lat": "47.88300",
                "lng": "-91.71600",
                "col_area": "22368.4",
                "project_id": 1,
                "col_type": "column",
                "refs": [
                    1
                ]
            },
            {
                "col_id": 184,
                "col_name": "Pine - Carlton Counties, Minnesota",
                "col_group": "Northern Mid-Continent",
                "col_group_id": 12,
                "group_col_id": "13.00",
                "lat": "46.41500",
                "lng": "-92.67800",
                "col_area": "27698.4",
                "project_id": 1,
                "col_type": "column",
                "refs": [
                    1
                ]
            },
            {
                "col_id": 186,
                "col_name": "Grant County, Wisconsin",
                "col_group": "Northern Mid-Continent",
                "col_group_id": 12,
                "group_col_id": "15.00",
                "lat": "42.78300",
                "lng": "-90.49000",
                "col_area": "24422.5",
                "project_id": 1,
                "col_type": "column",
                "refs": [
                    1
                ]
            },
            {
                "col_id": 187,
                "col_name": "Baraboo District, Sauk County, Wisconsin",
                "col_group": "Northern Mid-Continent",
                "col_group_id": 12,
                "group_col_id": "16.00",
                "lat": "43.23300",
                "lng": "-89.75600",
                "col_area": "18140.9",
                "project_id": 1,
                "col_type": "column",
                "refs": [
                    1
                ]
            },
            {
                "col_id": 189,
                "col_name": "Wausau-wisconsin Rapids Area, Marathon-Wood Counties, Wisconsin",
                "col_group": "Northern Mid-Continent",
                "col_group_id": 12,
                "group_col_id": "18.00",
                "lat": "44.54100",
                "lng": "-89.33300",
                "col_area": "20613.4",
                "project_id": 1,
                "col_type": "column",
                "refs": [
                    1
                ]
            },
            {
                "col_id": 191,
                "col_name": "Davis Hill Area Bayfield County, Wisconsin",
                "col_group": "Northern Mid-Continent",
                "col_group_id": 12,
                "group_col_id": "20.00",
                "lat": "46.40800",
                "lng": "-90.74000",
                "col_area": "13790.8",
                "project_id": 1,
                "col_type": "column",
                "refs": [
                    1
                ]
            },
            {
                "col_id": 193,
                "col_name": "Watersmeet Area, Gogebic County, Michigan",
                "col_group": "Northern Mid-Continent",
                "col_group_id": 12,
                "group_col_id": "22.00",
                "lat": "46.20700",
                "lng": "-89.03900",
                "col_area": "11111.6",
                "project_id": 1,
                "col_type": "column",
                "refs": [
                    1
                ]
            },
            {
                "col_id": 195,
                "col_name": "Marquette District, Marquette County, Michigan",
                "col_group": "Northern Mid-Continent",
                "col_group_id": 12,
                "group_col_id": "24.00",
                "lat": "46.57800",
                "lng": "-87.64000",
                "col_area": "22234.2",
                "project_id": 1,
                "col_type": "column",
                "refs": [
                    1
                ]
            },
            {
                "col_id": 196,
                "col_name": "Central Dickinson County, Michigan",
                "col_group": "Northern Mid-Continent",
                "col_group_id": 12,
                "group_col_id": "25.00",
                "lat": "46.03400",
                "lng": "-87.81300",
                "col_area": "11090.3",
                "project_id": 1,
                "col_type": "column",
                "refs": [
                    1
                ]
            },
            {
                "col_id": 197,
                "col_name": "Mountain-amberg Area, Oconto-marinette Counties, Wisconsin",
                "col_group": "Northern Mid-Continent",
                "col_group_id": 12,
                "group_col_id": "26.00",
                "lat": "45.21300",
                "lng": "-88.22400",
                "col_area": "16597.6",
                "project_id": 1,
                "col_type": "column",
                "refs": [
                    1
                ]
            },
            {
                "col_id": 198,
                "col_name": "Cuyama Valley",
                "col_group": "Southern California",
                "col_group_id": 18,
                "group_col_id": "1.00",
                "lat": "35.00500",
                "lng": "-119.85300",
                "col_area": "2735.4",
                "project_id": 1,
                "col_type": "column",
                "refs": [
                    1
                ]
            },
            {
                "col_id": 204,
                "col_name": "Soledad Basin",
                "col_group": "Southern California",
                "col_group_id": 18,
                "group_col_id": "7.00",
                "lat": "34.45300",
                "lng": "-118.45300",
                "col_area": "3128.3",
                "project_id": 1,
                "col_type": "column",
                "refs": [
                    1
                ]
            },
            {
                "col_id": 208,
                "col_name": "Northern Santa Ana Mountains",
                "col_group": "Southern California",
                "col_group_id": 18,
                "group_col_id": "11.00",
                "lat": "33.81700",
                "lng": "-117.68400",
                "col_area": "2380.3",
                "project_id": 1,
                "col_type": "column",
                "refs": [
                    1
                ]
            },
            {
                "col_id": 221,
                "col_name": "San Jacinto/Santa Rosa Mountains",
                "col_group": "Southern California",
                "col_group_id": 18,
                "group_col_id": "20.00",
                "lat": "33.63700",
                "lng": "-116.50000",
                "col_area": "4458.5",
                "project_id": 1,
                "col_type": "column",
                "refs": [
                    1
                ]
            },
            {
                "col_id": 223,
                "col_name": "Eagle/Pinto Mountains",
                "col_group": "Southern California",
                "col_group_id": 18,
                "group_col_id": "22.00",
                "lat": "33.93700",
                "lng": "-115.69900",
                "col_area": "10640.2",
                "project_id": 1,
                "col_type": "column",
                "refs": [
                    1
                ]
            },
            {
                "col_id": 225,
                "col_name": "Big Bear",
                "col_group": "Southern California",
                "col_group_id": 18,
                "group_col_id": "24.00",
                "lat": "34.21600",
                "lng": "-116.85800",
                "col_area": "4479.3",
                "project_id": 1,
                "col_type": "column",
                "refs": [
                    1
                ]
            },
            {
                "col_id": 226,
                "col_name": "Victorville",
                "col_group": "Southern California",
                "col_group_id": 18,
                "group_col_id": "25.00",
                "lat": "34.51200",
                "lng": "-117.32800",
                "col_area": "1998.6",
                "project_id": 1,
                "col_type": "column",
                "refs": [
                    1
                ]
            },
            {
                "col_id": 227,
                "col_name": "Kramer",
                "col_group": "Southern California",
                "col_group_id": 18,
                "group_col_id": "26.00",
                "lat": "34.98000",
                "lng": "-117.47000",
                "col_area": "9886.6",
                "project_id": 1,
                "col_type": "column",
                "refs": [
                    1
                ]
            },
            {
                "col_id": 231,
                "col_name": "Mescal Range-Providence Mountains",
                "col_group": "Southern California",
                "col_group_id": 18,
                "group_col_id": "30.00",
                "lat": "35.43300",
                "lng": "-115.33300",
                "col_area": "17192.9",
                "project_id": 1,
                "col_type": "column",
                "refs": [
                    1
                ]
            },
            {
                "col_id": 235,
                "col_name": "West of Mccloud River",
                "col_group": "Northern California",
                "col_group_id": 10,
                "group_col_id": "4.00",
                "lat": "41.10800",
                "lng": "-122.55400",
                "col_area": "3938.4",
                "project_id": 1,
                "col_type": "column",
                "refs": [
                    1
                ]
            },
            {
                "col_id": 238,
                "col_name": "North Fork",
                "col_group": "Northern California",
                "col_group_id": 10,
                "group_col_id": "7.00",
                "lat": "40.76100",
                "lng": "-123.15000",
                "col_area": "2018.8",
                "project_id": 1,
                "col_type": "column",
                "refs": [
                    1
                ]
            },
            {
                "col_id": 239,
                "col_name": "Hayfork",
                "col_group": "Northern California",
                "col_group_id": 10,
                "group_col_id": "8.00",
                "lat": "40.57000",
                "lng": "-123.13100",
                "col_area": "4880.4",
                "project_id": 1,
                "col_type": "column",
                "refs": [
                    1
                ]
            },
            {
                "col_id": 291,
                "col_name": "Harney Basin to Steens Mountains, South-Central Oregon",
                "col_group": "Northwest",
                "col_group_id": 14,
                "group_col_id": "26.00",
                "lat": "43.05100",
                "lng": "-118.88300",
                "col_area": "24273.2",
                "project_id": 1,
                "col_type": "column",
                "refs": [
                    1
                ]
            },
            {
                "col_id": 292,
                "col_name": "Pullman, Wa. to Snake River Gorge, Wa. Or Id.",
                "col_group": "Northwest",
                "col_group_id": 14,
                "group_col_id": "27.00",
                "lat": "46.55600",
                "lng": "-117.19900",
                "col_area": "34511.4",
                "project_id": 1,
                "col_type": "column",
                "refs": [
                    1
                ]
            },
            {
                "col_id": 293,
                "col_name": "Baker County and Wallowa Mountains, Oregon",
                "col_group": "Northwest",
                "col_group_id": 14,
                "group_col_id": "28.00",
                "lat": "44.99500",
                "lng": "-117.39400",
                "col_area": "31115.2",
                "project_id": 1,
                "col_type": "column",
                "refs": [
                    1
                ]
            },
            {
                "col_id": 296,
                "col_name": "Allegany County, Maryland",
                "col_group": "Northern Appalachians",
                "col_group_id": 9,
                "group_col_id": "13.00",
                "lat": "39.67600",
                "lng": "-78.67800",
                "col_area": "5979.3",
                "project_id": 1,
                "col_type": "column",
                "refs": [
                    1
                ]
            },
            {
                "col_id": 300,
                "col_name": "Southwestern Pennsylvania",
                "col_group": "Northern Appalachians",
                "col_group_id": 9,
                "group_col_id": "17.00",
                "lat": "40.52800",
                "lng": "-79.56300",
                "col_area": "17251.1",
                "project_id": 1,
                "col_type": "column",
                "refs": [
                    1
                ]
            },
            {
                "col_id": 301,
                "col_name": "South-central Pennsylvania",
                "col_group": "Northern Appalachians",
                "col_group_id": 9,
                "group_col_id": "18.00",
                "lat": "40.29100",
                "lng": "-77.89000",
                "col_area": "12044.4",
                "project_id": 1,
                "col_type": "column",
                "refs": [
                    1
                ]
            },
            {
                "col_id": 305,
                "col_name": "North-central Pennsylvania",
                "col_group": "Northern Appalachians",
                "col_group_id": 9,
                "group_col_id": "22.00",
                "lat": "41.64300",
                "lng": "-77.32000",
                "col_area": "20502.5",
                "project_id": 1,
                "col_type": "column",
                "refs": [
                    1
                ]
            },
            {
                "col_id": 306,
                "col_name": "Northeast Pennsylvania",
                "col_group": "Northern Appalachians",
                "col_group_id": 9,
                "group_col_id": "23.00",
                "lat": "41.54300",
                "lng": "-75.20000",
                "col_area": "11981.7",
                "project_id": 1,
                "col_type": "column",
                "refs": [
                    1
                ]
            },
            {
                "col_id": 308,
                "col_name": "Northwestern New Jersey",
                "col_group": "Northern Appalachians",
                "col_group_id": 9,
                "group_col_id": "25.00",
                "lat": "40.68600",
                "lng": "-74.87500",
                "col_area": "2982.2",
                "project_id": 1,
                "col_type": "column",
                "refs": [
                    1
                ]
            },
            {
                "col_id": 309,
                "col_name": "Green Pond Mountain Region, New Jersey",
                "col_group": "Northern Appalachians",
                "col_group_id": 9,
                "group_col_id": "26.00",
                "lat": "40.99300",
                "lng": "-74.53700",
                "col_area": "4577.9",
                "project_id": 1,
                "col_type": "column",
                "refs": [
                    1
                ]
            },
            {
                "col_id": 310,
                "col_name": "Western New York",
                "col_group": "Northern Appalachians",
                "col_group_id": 9,
                "group_col_id": "27.00",
                "lat": "42.58300",
                "lng": "-78.62300",
                "col_area": "18733.5",
                "project_id": 1,
                "col_type": "column",
                "refs": [
                    1
                ]
            },
            {
                "col_id": 311,
                "col_name": "West-central New York",
                "col_group": "Northern Appalachians",
                "col_group_id": 9,
                "group_col_id": "28.00",
                "lat": "42.96000",
                "lng": "-77.03300",
                "col_area": "26811.3",
                "project_id": 1,
                "col_type": "column",
                "refs": [
                    1
                ]
            },
            {
                "col_id": 312,
                "col_name": "East-central New York",
                "col_group": "Northern Appalachians",
                "col_group_id": 9,
                "group_col_id": "29.00",
                "lat": "43.11600",
                "lng": "-75.77800",
                "col_area": "24062.0",
                "project_id": 1,
                "col_type": "column",
                "refs": [
                    1
                ]
            },
            {
                "col_id": 313,
                "col_name": "Eastern New York",
                "col_group": "Northern Appalachians",
                "col_group_id": 9,
                "group_col_id": "30.00",
                "lat": "42.56100",
                "lng": "-74.30000",
                "col_area": "10773.0",
                "project_id": 1,
                "col_type": "column",
                "refs": [
                    1
                ]
            },
            {
                "col_id": 314,
                "col_name": "Southeastern New York",
                "col_group": "Northern Appalachians",
                "col_group_id": 9,
                "group_col_id": "31.00",
                "lat": "41.82400",
                "lng": "-74.15900",
                "col_area": "6315.5",
                "project_id": 1,
                "col_type": "column",
                "refs": [
                    1
                ]
            },
            {
                "col_id": 315,
                "col_name": "Adirondack Mountains and Champlain Valley",
                "col_group": "Northeast United States",
                "col_group_id": 11,
                "group_col_id": "1.00",
                "lat": "43.91300",
                "lng": "-74.30000",
                "col_area": "18419.4",
                "project_id": 1,
                "col_type": "column",
                "refs": [
                    1
                ]
            },
            {
                "col_id": 316,
                "col_name": "Yukon-Koyukuk Basin",
                "col_group": "Southern Alaska",
                "col_group_id": 16,
                "group_col_id": "1.00",
                "lat": "64.97100",
                "lng": "-158.13100",
                "col_area": "91531.1",
                "project_id": 1,
                "col_type": "column",
                "refs": [
                    1
                ]
            },
            {
                "col_id": 317,
                "col_name": "Northern Kuskokwim Mountains",
                "col_group": "Southern Alaska",
                "col_group_id": 16,
                "group_col_id": "2.00",
                "lat": "64.91400",
                "lng": "-153.32600",
                "col_area": "46643.3",
                "project_id": 1,
                "col_type": "column",
                "refs": [
                    1
                ]
            },
            {
                "col_id": 318,
                "col_name": "Southwest Alaska Range, Farewell Area",
                "col_group": "Southern Alaska",
                "col_group_id": 16,
                "group_col_id": "3.00",
                "lat": "62.24000",
                "lng": "-154.03300",
                "col_area": "65616.2",
                "project_id": 1,
                "col_type": "column",
                "refs": [
                    1
                ]
            },
            {
                "col_id": 319,
                "col_name": "North Central Alaska, Range Healy Area",
                "col_group": "Southern Alaska",
                "col_group_id": 16,
                "group_col_id": "4.00",
                "lat": "64.53300",
                "lng": "-149.97000",
                "col_area": "31099.5",
                "project_id": 1,
                "col_type": "column",
                "refs": [
                    1
                ]
            },
            {
                "col_id": 322,
                "col_name": "Kanektok River",
                "col_group": "Southern Alaska",
                "col_group_id": 16,
                "group_col_id": "7.00",
                "lat": "59.57100",
                "lng": "-161.01600",
                "col_area": "111482.0",
                "project_id": 1,
                "col_type": "column",
                "refs": [
                    1
                ]
            },
            {
                "col_id": 323,
                "col_name": "Tikchik Lakes",
                "col_group": "Southern Alaska",
                "col_group_id": 16,
                "group_col_id": "8.00",
                "lat": "60.23000",
                "lng": "-159.34100",
                "col_area": "75593.2",
                "project_id": 1,
                "col_type": "column",
                "refs": [
                    1
                ]
            },
            {
                "col_id": 329,
                "col_name": "Glacier National Park Area, Northwestern Montana",
                "col_group": "Northern Rockies",
                "col_group_id": 13,
                "group_col_id": "6.00",
                "lat": "48.54400",
                "lng": "-113.83400",
                "col_area": "13493.5",
                "project_id": 1,
                "col_type": "column",
                "refs": [
                    1
                ]
            },
            {
                "col_id": 330,
                "col_name": "Southern Disturbed Belt, Northwestern Montana",
                "col_group": "Northern Rockies",
                "col_group_id": 13,
                "group_col_id": "7.00",
                "lat": "47.31600",
                "lng": "-112.72800",
                "col_area": "18357.9",
                "project_id": 1,
                "col_type": "column",
                "refs": [
                    1
                ]
            },
            {
                "col_id": 332,
                "col_name": "Butte - Bozeman and South, Southwestern Montana",
                "col_group": "Northern Rockies",
                "col_group_id": 13,
                "group_col_id": "9.00",
                "lat": "45.43500",
                "lng": "-112.11800",
                "col_area": "29450.6",
                "project_id": 1,
                "col_type": "column",
                "refs": [
                    1
                ]
            },
            {
                "col_id": 333,
                "col_name": "West Flank Sweetgrass Arch and Disturbed Belt, Northwest Montana",
                "col_group": "Northern Rockies",
                "col_group_id": 13,
                "group_col_id": "10.00",
                "lat": "48.18100",
                "lng": "-112.76200",
                "col_area": "18458.6",
                "project_id": 1,
                "col_type": "column",
                "refs": [
                    1
                ]
            },
            {
                "col_id": 334,
                "col_name": "East Flank Sweetgrass Arch and Disturbed Belt, Northwest Montana",
                "col_group": "Northern Rockies",
                "col_group_id": 13,
                "group_col_id": "11.00",
                "lat": "48.43200",
                "lng": "-110.88800",
                "col_area": "27289.6",
                "project_id": 1,
                "col_type": "column",
                "refs": [
                    1
                ]
            },
            {
                "col_id": 335,
                "col_name": "Central Montana Uplift",
                "col_group": "Northern Rockies",
                "col_group_id": 13,
                "group_col_id": "12.00",
                "lat": "46.51600",
                "lng": "-109.55300",
                "col_area": "40610.8",
                "project_id": 1,
                "col_type": "column",
                "refs": [
                    1
                ]
            },
            {
                "col_id": 337,
                "col_name": "Garfield County North Basin",
                "col_group": "Northern Rockies",
                "col_group_id": 13,
                "group_col_id": "14.00",
                "lat": "47.26600",
                "lng": "-106.96100",
                "col_area": "43154.7",
                "project_id": 1,
                "col_type": "column",
                "refs": [
                    1
                ]
            },
            {
                "col_id": 340,
                "col_name": "Billings County Central Basin",
                "col_group": "Northern Rockies",
                "col_group_id": 13,
                "group_col_id": "17.00",
                "lat": "47.27900",
                "lng": "-103.42100",
                "col_area": "21013.7",
                "project_id": 1,
                "col_type": "column",
                "refs": [
                    1
                ]
            },
            {
                "col_id": 341,
                "col_name": "Williams County Nesson Anticline",
                "col_group": "Northern Rockies",
                "col_group_id": 13,
                "group_col_id": "18.00",
                "lat": "48.38300",
                "lng": "-102.95000",
                "col_area": "39055.2",
                "project_id": 1,
                "col_type": "column",
                "refs": [
                    1
                ]
            },
            {
                "col_id": 342,
                "col_name": "Burleigh County East Basin",
                "col_group": "Northern Rockies",
                "col_group_id": 13,
                "group_col_id": "19.00",
                "lat": "47.24600",
                "lng": "-100.57500",
                "col_area": "36781.9",
                "project_id": 1,
                "col_type": "column",
                "refs": [
                    1
                ]
            },
            {
                "col_id": 343,
                "col_name": "Bottineau County Northeast Basin",
                "col_group": "Northern Rockies",
                "col_group_id": 13,
                "group_col_id": "20.00",
                "lat": "48.84900",
                "lng": "-100.80000",
                "col_area": "22995.6",
                "project_id": 1,
                "col_type": "column",
                "refs": [
                    1
                ]
            },
            {
                "col_id": 344,
                "col_name": "Cavalier County Northeast Edge",
                "col_group": "Northern Rockies",
                "col_group_id": 13,
                "group_col_id": "21.00",
                "lat": "48.56600",
                "lng": "-98.00100",
                "col_area": "30736.2",
                "project_id": 1,
                "col_type": "column",
                "refs": [
                    1
                ]
            },
            {
                "col_id": 345,
                "col_name": "Dickey County Southeast Edge",
                "col_group": "Northern Rockies",
                "col_group_id": 13,
                "group_col_id": "22.00",
                "lat": "46.74100",
                "lng": "-98.05600",
                "col_area": "37620.6",
                "project_id": 1,
                "col_type": "column",
                "refs": [
                    1
                ]
            },
            {
                "col_id": 346,
                "col_name": "Adams and Harding Counties, Southwest Basin",
                "col_group": "Northern Rockies",
                "col_group_id": 13,
                "group_col_id": "23.00",
                "lat": "46.26600",
                "lng": "-102.95000",
                "col_area": "26650.5",
                "project_id": 1,
                "col_type": "column",
                "refs": [
                    1
                ]
            },
            {
                "col_id": 347,
                "col_name": "Pennington County Northern Black Hills",
                "col_group": "Northern Rockies",
                "col_group_id": 13,
                "group_col_id": "24.00",
                "lat": "44.95000",
                "lng": "-102.87800",
                "col_area": "27250.6",
                "project_id": 1,
                "col_type": "column",
                "refs": [
                    1
                ]
            },
            {
                "col_id": 350,
                "col_name": "Northern Georgia Piedmont",
                "col_group": "Piedmont-Blue Ridge",
                "col_group_id": 15,
                "group_col_id": "2.00",
                "lat": "33.78300",
                "lng": "-85.08300",
                "col_area": "5020.9",
                "project_id": 1,
                "col_type": "column",
                "refs": [
                    1
                ]
            },
            {
                "col_id": 354,
                "col_name": "Grandfather Mountain Window, North Carolina",
                "col_group": "Piedmont-Blue Ridge",
                "col_group_id": 15,
                "group_col_id": "6.00",
                "lat": "36.16600",
                "lng": "-81.18300",
                "col_area": "7846.0",
                "project_id": 1,
                "col_type": "column",
                "refs": [
                    1
                ]
            },
            {
                "col_id": 355,
                "col_name": "Blue Ridge Thrust Sheet North and West of Grandfather Mountain Window, Nort",
                "col_group": "Piedmont-Blue Ridge",
                "col_group_id": 15,
                "group_col_id": "7.00",
                "lat": "35.94100",
                "lng": "-81.43300",
                "col_area": "15033.2",
                "project_id": 1,
                "col_type": "column",
                "refs": [
                    1
                ]
            },
            {
                "col_id": 361,
                "col_name": "Southern Alabama Piedmont",
                "col_group": "Piedmont-Blue Ridge",
                "col_group_id": 15,
                "group_col_id": "13.00",
                "lat": "32.86200",
                "lng": "-85.42800",
                "col_area": "5519.3",
                "project_id": 1,
                "col_type": "column",
                "refs": [
                    1
                ]
            },
            {
                "col_id": 362,
                "col_name": "Middle, Georgia Piedmont",
                "col_group": "Piedmont-Blue Ridge",
                "col_group_id": 15,
                "group_col_id": "14.00",
                "lat": "33.49600",
                "lng": "-84.69500",
                "col_area": "4127.6",
                "project_id": 1,
                "col_type": "column",
                "refs": [
                    1
                ]
            },
            {
                "col_id": 363,
                "col_name": "Atlanta Area, Georgia",
                "col_group": "Piedmont-Blue Ridge",
                "col_group_id": 15,
                "group_col_id": "15.00",
                "lat": "33.84700",
                "lng": "-84.38000",
                "col_area": "11291.8",
                "project_id": 1,
                "col_type": "column",
                "refs": [
                    1
                ]
            },
            {
                "col_id": 364,
                "col_name": "Central and Western South Carolina Slate Belt",
                "col_group": "Piedmont-Blue Ridge",
                "col_group_id": 15,
                "group_col_id": "16.00",
                "lat": "34.19200",
                "lng": "-82.46500",
                "col_area": "25403.5",
                "project_id": 1,
                "col_type": "column",
                "refs": [
                    1
                ]
            },
            {
                "col_id": 365,
                "col_name": "North Carolina Slate Belt",
                "col_group": "Piedmont-Blue Ridge",
                "col_group_id": 15,
                "group_col_id": "17.00",
                "lat": "35.49000",
                "lng": "-79.67200",
                "col_area": "26945.6",
                "project_id": 1,
                "col_type": "column",
                "refs": [
                    1
                ]
            },
            {
                "col_id": 366,
                "col_name": "Piedmont and Eastern Blue Ridge, Central and Southern Virginia",
                "col_group": "Piedmont-Blue Ridge",
                "col_group_id": 15,
                "group_col_id": "18.00",
                "lat": "37.71600",
                "lng": "-78.81100",
                "col_area": "14634.7",
                "project_id": 1,
                "col_type": "column",
                "refs": [
                    1
                ]
            },
            {
                "col_id": 367,
                "col_name": "Northern and Central Virginia Piedmont",
                "col_group": "Piedmont-Blue Ridge",
                "col_group_id": 15,
                "group_col_id": "19.00",
                "lat": "38.57700",
                "lng": "-77.66400",
                "col_area": "4957.0",
                "project_id": 1,
                "col_type": "column",
                "refs": [
                    1
                ]
            },
            {
                "col_id": 371,
                "col_name": "Lower Hudson Valley",
                "col_group": "Northeast United States",
                "col_group_id": 11,
                "group_col_id": "4.00",
                "lat": "41.38300",
                "lng": "-73.79100",
                "col_area": "6151.4",
                "project_id": 1,
                "col_type": "column",
                "refs": [
                    1
                ]
            },
            {
                "col_id": 372,
                "col_name": "Western Massachusetts West Side - Berkshire Anticlinorium",
                "col_group": "Northeast United States",
                "col_group_id": 11,
                "group_col_id": "5.00",
                "lat": "42.47600",
                "lng": "-73.22000",
                "col_area": "4599.9",
                "project_id": 1,
                "col_type": "column",
                "refs": [
                    1
                ]
            },
            {
                "col_id": 373,
                "col_name": "Northwestern Vermont",
                "col_group": "Northeast United States",
                "col_group_id": 11,
                "group_col_id": "6.00",
                "lat": "44.74500",
                "lng": "-73.10000",
                "col_area": "5639.7",
                "project_id": 1,
                "col_type": "column",
                "refs": [
                    1
                ]
            },
            {
                "col_id": 376,
                "col_name": "West Limb - Connecticut Valley Synclinorium West Central Massachusetts",
                "col_group": "Northeast United States",
                "col_group_id": 11,
                "group_col_id": "9.00",
                "lat": "42.52800",
                "lng": "-72.80600",
                "col_area": "5621.9",
                "project_id": 1,
                "col_type": "column",
                "refs": [
                    1
                ]
            },
            {
                "col_id": 378,
                "col_name": "Northwestern New Hampshire",
                "col_group": "Northeast United States",
                "col_group_id": 11,
                "group_col_id": "11.00",
                "lat": "44.86000",
                "lng": "-71.20600",
                "col_area": "7524.0",
                "project_id": 1,
                "col_type": "column",
                "refs": [
                    1
                ]
            },
            {
                "col_id": 380,
                "col_name": "Western New Hampshire",
                "col_group": "Northeast United States",
                "col_group_id": 11,
                "group_col_id": "13.00",
                "lat": "44.07800",
                "lng": "-71.84800",
                "col_area": "8555.5",
                "project_id": 1,
                "col_type": "column",
                "refs": [
                    1
                ]
            },
            {
                "col_id": 381,
                "col_name": "West - Central Maine",
                "col_group": "Northeast United States",
                "col_group_id": 11,
                "group_col_id": "14.00",
                "lat": "45.08300",
                "lng": "-70.55300",
                "col_area": "11814.5",
                "project_id": 1,
                "col_type": "column",
                "refs": [
                    1
                ]
            },
            {
                "col_id": 382,
                "col_name": "North - Central Maine",
                "col_group": "Northeast United States",
                "col_group_id": 11,
                "group_col_id": "15.00",
                "lat": "46.27500",
                "lng": "-69.29100",
                "col_area": "15253.9",
                "project_id": 1,
                "col_type": "column",
                "refs": [
                    1
                ]
            },
            {
                "col_id": 383,
                "col_name": "Northeastern Maine",
                "col_group": "Northeast United States",
                "col_group_id": 11,
                "group_col_id": "16.00",
                "lat": "46.64100",
                "lng": "-68.29600",
                "col_area": "12425.9",
                "project_id": 1,
                "col_type": "column",
                "refs": [
                    1
                ]
            },
            {
                "col_id": 384,
                "col_name": "South - Central New Hampshire",
                "col_group": "Northeast United States",
                "col_group_id": 11,
                "group_col_id": "17.00",
                "lat": "43.17600",
                "lng": "-71.87500",
                "col_area": "9494.2",
                "project_id": 1,
                "col_type": "column",
                "refs": [
                    1
                ]
            },
            {
                "col_id": 385,
                "col_name": "Southern Maine",
                "col_group": "Northeast United States",
                "col_group_id": 11,
                "group_col_id": "18.00",
                "lat": "43.42500",
                "lng": "-70.57600",
                "col_area": "24238.0",
                "project_id": 1,
                "col_type": "column",
                "refs": [
                    1
                ]
            },
            {
                "col_id": 386,
                "col_name": "South - Central Maine",
                "col_group": "Northeast United States",
                "col_group_id": 11,
                "group_col_id": "19.00",
                "lat": "44.54500",
                "lng": "-68.61100",
                "col_area": "20879.1",
                "project_id": 1,
                "col_type": "column",
                "refs": [
                    1
                ]
            },