{
    "success": {
        "v": 2,
        "license": "CC-BY 4.0",
        "data": [
            {
                "col_id": 2,
                "col_name": "Madison Co, Alabama",
                "col_group": "Southern Appalachians",
                "col_group_id": 17,
                "group_col_id": "1.00",
                "lat": "34.85300",
                "lng": "-86.56200",
                "col_area": "6345.4",
                "project_id": 1,
                "col_type": "column",
                "refs": [
                    1
                ]
            },
            {
                "col_id": 3,
                "col_name": "Jackson County, Alabama",
                "col_group": "Southern Appalachians",
                "col_group_id": 17,
                "group_col_id": "2.00",
                "lat": "34.83200",
                "lng": "-85.78200",
                "col_area": "4134.0",
                "project_id": 1,
                "col_type": "column",
                "refs": [
                    1
                ]
            },
            {
                "col_id": 4,
                "col_name": "Blount County, Alabama",
                "col_group": "Southern Appalachians",
                "col_group_id": 17,
                "group_col_id": "3.00",
                "lat": "33.99800",
                "lng": "-86.55000",
                "col_area": "2726.5",
                "project_id": 1,
                "col_type": "column",
                "refs": [
                    1
                ]
            },
            {
                "col_id": 5,
                "col_name": "Dekalb & Western Etowah Counties, Alabama",
                "col_group": "Southern Appalachians",
                "col_group_id": 17,
                "group_col_id": "4.00",
                "lat": "34.35400",
                "lng": "-86.07900",
                "col_area": "3339.3",
                "project_id": 1,
                "col_type": "column",
                "refs": [
                    1
                ]
            },
            {
                "col_id": 6,
                "col_name": "Western Valley & Ridge, Northern Segment, Alabama",
                "col_group": "Southern Appalachians",
                "col_group_id": 17,
                "group_col_id": "5.00",
                "lat": "34.20900",
                "lng": "-85.59900",
                "col_area": "3863.2",
                "project_id": 1,
                "col_type": "column",
                "refs": [
                    1
                ]
            },
            {
                "col_id": 7,
                "col_name": "Eastern Valley and Ridge, Northern Segment, Alabama",
                "col_group": "Southern Appalachians",
                "col_group_id": 17,
                "group_col_id": "6.00",
                "lat": "33.71700",
                "lng": "-86.15600",
                "col_area": "3708.0",
                "project_id": 1,
                "col_type": "column",
                "refs": [
                    1
                ]
            },
            {
                "col_id": 8,
                "col_name": "Western Valley & Ridge, Southern Segment, Alabama",
                "col_group": "Southern Appalachians",
                "col_group_id": 17,
                "group_col_id": "7.00",
                "lat": "33.66200",
                "lng": "-86.78600",
                "col_area": "4713.7",
                "project_id": 1,
                "col_type": "column",
                "refs": [
                    1
                ]
            },
            {
                "col_id": 9,
                "col_name": "Eastern Valley & Ridge, Southern Segment, Alabama",
                "col_group": "Southern Appalachians",
                "col_group_id": 17,
                "group_col_id": "8.00",
                "lat": "33.16500",
                "lng": "-87.30400",
                "col_area": "17966.6",
                "project_id": 1,
                "col_type": "column",
                "refs": [
                    1
                ]
            },
            {
                "col_id": 10,
                "col_name": "Northwestern Valley & Ridge & Plateau, Georgia",
                "col_group": "Southern Appalachians",
                "col_group_id": 17,
                "group_col_id": "9.00",
                "lat": "34.72500",
                "lng": "-85.30000",
                "col_area": "4813.1",
                "project_id": 1,
                "col_type": "column",
                "refs": [
                    1
                ]
            },
            {
                "col_id": 11,
                "col_name": "Southeastern Valley & Ridge, Georgia",
                "col_group": "Southern Appalachians",
                "col_group_id": 17,
                "group_col_id": "10.00",
                "lat": "34.50300",
                "lng": "-85.00000",
                "col_area": "3954.6",
                "project_id": 1,
                "col_type": "column",
                "refs": [
                    1
                ]
            },
            {
                "col_id": 12,
                "col_name": "Cumberland Plateau & Adjacent Areas, Tennessee",
                "col_group": "Southern Appalachians",
                "col_group_id": 17,
                "group_col_id": "11.00",
                "lat": "36.01100",
                "lng": "-84.92400",
                "col_area": "15407.2",
                "project_id": 1,
                "col_type": "column",
                "refs": [
                    1
                ]
            },
            {
                "col_id": 13,
                "col_name": "Pine Mountain Overthrust & Adjacent Areas, Tennessee",
                "col_group": "Southern Appalachians",
                "col_group_id": 17,
                "group_col_id": "12.00",
                "lat": "36.45000",
                "lng": "-83.57500",
                "col_area": "6650.1",
                "project_id": 1,
                "col_type": "column",
                "refs": [
                    1
                ]
            },
            {
                "col_id": 14,
                "col_name": "Northern Unaka Mountains & Adjacent Valley & Ridge, Tennessee",
                "col_group": "Southern Appalachians",
                "col_group_id": 17,
                "group_col_id": "14.00",
                "lat": "36.30800",
                "lng": "-82.48300",
                "col_area": "6516.7",
                "project_id": 1,
                "col_type": "column",
                "refs": [
                    1
                ]
            },
            {
                "col_id": 15,
                "col_name": "Southern Unaka Mountains and Adjacent Valley & Ridge, Tennessee",
                "col_group": "Southern Appalachians",
                "col_group_id": 17,
                "group_col_id": "15.00",
                "lat": "35.91600",
                "lng": "-83.71600",
                "col_area": "6014.0",
                "project_id": 1,
                "col_type": "column",
                "refs": [
                    1
                ]
            },
            {
                "col_id": 16,
                "col_name": "Valley & Ridge, Tennessee",
                "col_group": "Southern Appalachians",
                "col_group_id": 17,
                "group_col_id": "13.00",
                "lat": "36.33300",
                "lng": "-83.06600",
                "col_area": "2825.0",
                "project_id": 1,
                "col_type": "column",
                "refs": [
                    1
                ]
            },
            {
                "col_id": 17,
                "col_name": "South-central, Ohio",
                "col_group": "Southern Appalachians",
                "col_group_id": 17,
                "group_col_id": "16.00",
                "lat": "39.39700",
                "lng": "-82.82800",
                "col_area": "13348.1",
                "project_id": 1,
                "col_type": "column",
                "refs": [
                    1
                ]
            },
            {
                "col_id": 18,
                "col_name": "Northeastern Kentucky",
                "col_group": "Southern Appalachians",
                "col_group_id": 17,
                "group_col_id": "17.00",
                "lat": "38.50000",
                "lng": "-83.05000",
                "col_area": "12817.5",
                "project_id": 1,
                "col_type": "column",
                "refs": [
                    1
                ]
            },
            {
                "col_id": 19,
                "col_name": "Eastern Kentucky",
                "col_group": "Southern Appalachians",
                "col_group_id": 17,
                "group_col_id": "18.00",
                "lat": "37.57900",
                "lng": "-83.00100",
                "col_area": "8705.3",
                "project_id": 1,
                "col_type": "column",
                "refs": [
                    1
                ]
            },
            {
                "col_id": 20,
                "col_name": "Southeastern Kentucky: North of Pine Mtn",
                "col_group": "Southern Appalachians",
                "col_group_id": 17,
                "group_col_id": "19.00",
                "lat": "36.98000",
                "lng": "-83.22000",
                "col_area": "4162.6",
                "project_id": 1,
                "col_type": "column",
                "refs": [
                    1
                ]
            },
            {
                "col_id": 21,
                "col_name": "Lee County, Virginia",
                "col_group": "Southern Appalachians",
                "col_group_id": 17,
                "group_col_id": "20.00",
                "lat": "36.73500",
                "lng": "-82.92500",
                "col_area": "2435.6",
                "project_id": 1,
                "col_type": "column",
                "refs": [
                    1
                ]
            },
            {
                "col_id": 22,
                "col_name": "Northern Part Chautauqua Platform",
                "col_group": "Texas-Oklahoma Tectonic Region",
                "col_group_id": 20,
                "group_col_id": "1.00",
                "lat": "36.58300",
                "lng": "-96.43400",
                "col_area": "26764.6",
                "project_id": 1,
                "col_type": "column",
                "refs": [
                    1
                ]
            },
            {
                "col_id": 23,
                "col_name": "Appalachian Plateau, Virginia",
                "col_group": "Southern Appalachians",
                "col_group_id": 17,
                "group_col_id": "21.00",
                "lat": "37.30000",
                "lng": "-82.11600",
                "col_area": "5536.0",
                "project_id": 1,
                "col_type": "column",
                "refs": [
                    1
                ]
            },
            {
                "col_id": 24,
                "col_name": "Southern Part Chautauqua Platform",
                "col_group": "Texas-Oklahoma Tectonic Region",
                "col_group_id": 20,
                "group_col_id": "2.00",
                "lat": "35.58300",
                "lng": "-96.24800",
                "col_area": "18076.3",
                "project_id": 1,
                "col_type": "column",
                "refs": [
                    1
                ]
            },
            {
                "col_id": 25,
                "col_name": "Scott and Russell Counties, Virginia",
                "col_group": "Southern Appalachians",
                "col_group_id": 17,
                "group_col_id": "22.00",
                "lat": "36.77800",
                "lng": "-82.35600",
                "col_area": "2889.7",
                "project_id": 1,
                "col_type": "column",
                "refs": [
                    1
                ]
            },
            {
                "col_id": 26,
                "col_name": "Lehigh Basin Portion of Arkoma Basin",
                "col_group": "Texas-Oklahoma Tectonic Region",
                "col_group_id": 20,
                "group_col_id": "3.00",
                "lat": "34.72300",
                "lng": "-96.45800",
                "col_area": "13344.3",
                "project_id": 1,
                "col_type": "column",
                "refs": [
                    1
                ]
            },
            {
                "col_id": 27,
                "col_name": "Washington & Smyth Counties, Virginia: West of Pulaski Fault",
                "col_group": "Southern Appalachians",
                "col_group_id": 17,
                "group_col_id": "23.00",
                "lat": "36.81700",
                "lng": "-81.94400",
                "col_area": "2773.6",
                "project_id": 1,
                "col_type": "column",
                "refs": [
                    1
                ]
            },
            {
                "col_id": 28,
                "col_name": "Western Anticline Belt (southern half), Virginia",
                "col_group": "Southern Appalachians",
                "col_group_id": 17,
                "group_col_id": "24.00",
                "lat": "37.13300",
                "lng": "-81.46600",
                "col_area": "3176.8",
                "project_id": 1,
                "col_type": "column",
                "refs": [
                    1
                ]
            },
            {
                "col_id": 31,
                "col_name": "Eastern Wisconsin",
                "col_group": "Midwestern Basins and Arches",
                "col_group_id": 6,
                "group_col_id": "1.00",
                "lat": "43.73300",
                "lng": "-87.84500",
                "col_area": "27548.8",
                "project_id": 1,
                "col_type": "column",
                "refs": [
                    1
                ]
            },
            {
                "col_id": 32,
                "col_name": "Southern Coal Basin, West Virginia",
                "col_group": "Northern Appalachians",
                "col_group_id": 9,
                "group_col_id": "1.00",
                "lat": "38.00000",
                "lng": "-81.61100",
                "col_area": "10739.4",
                "project_id": 1,
                "col_type": "column",
                "refs": [
                    1
                ]
            },
            {
                "col_id": 33,
                "col_name": "Sioux/Lyons Counties, Iowa",
                "col_group": "Midcontinent",
                "col_group_id": 7,
                "group_col_id": "1.00",
                "lat": "43.26700",
                "lng": "-96.15200",
                "col_area": "8337.9",
                "project_id": 1,
                "col_type": "column",
                "refs": [
                    1
                ]
            },
            {
                "col_id": 34,
                "col_name": "Cost G1 Well Georges Bank Basin",
                "col_group": "Atlantic Coastal Plain",
                "col_group_id": 1,
                "group_col_id": "1.00",
                "lat": "40.91600",
                "lng": "-68.30000",
                "col_area": "32244.7",
                "project_id": 1,
                "col_type": "column",
                "refs": [
                    1
                ]
            },
            {
                "col_id": 35,
                "col_name": "Plomosa and Dome Rock Mountains Area",
                "col_group": "Southwest Mid-Continent",
                "col_group_id": 19,
                "group_col_id": "1.00",
                "lat": "33.59100",
                "lng": "-114.06100",
                "col_area": "60048.7",
                "project_id": 1,
                "col_type": "column",
                "refs": [
                    1
                ]
            },
            {
                "col_id": 36,
                "col_name": "Barrow - Drew Point",
                "col_group": "Northern Alaska",
                "col_group_id": 8,
                "group_col_id": "1.00",
                "lat": "70.64400",
                "lng": "-154.58300",
                "col_area": "27287.5",
                "project_id": 1,
                "col_type": "column",
                "refs": [
                    1
                ]
            },
            {
                "col_id": 37,
                "col_name": "Wythe and Pulaski Counties, Virginia: West of Pulaski Fault",
                "col_group": "Southern Appalachians",
                "col_group_id": 17,
                "group_col_id": "25.00",
                "lat": "37.01800",
                "lng": "-81.23100",
                "col_area": "2729.2",
                "project_id": 1,
                "col_type": "column",
                "refs": [
                    1
                ]
            },
            {
                "col_id": 38,
                "col_name": "Montgomery and Roanoke Counties, Virginia: West of Pulaski Fault",
                "col_group": "Southern Appalachians",
                "col_group_id": 17,
                "group_col_id": "26.00",
                "lat": "37.23800",
                "lng": "-80.55500",
                "col_area": "2426.8",
                "project_id": 1,
                "col_type": "column",
                "refs": [
                    1
                ]
            },
            {
                "col_id": 39,
                "col_name": "Basin Center, West Virginia",
                "col_group": "Northern Appalachians",
                "col_group_id": 9,
                "group_col_id": "2.00",
                "lat": "38.44500",
                "lng": "-80.98600",
                "col_area": "8320.5",
                "project_id": 1,
                "col_type": "column",
                "refs": [
                    1
                ]
            },
            {
                "col_id": 40,
                "col_name": "Southeast Valley & Ridge, West Virginia",
                "col_group": "Northern Appalachians",
                "col_group_id": 9,
                "group_col_id": "3.00",
                "lat": "37.74100",
                "lng": "-80.60800",
                "col_area": "5425.7",
                "project_id": 1,
                "col_type": "column",
                "refs": [
                    1
                ]
            },
            {
                "col_id": 41,
                "col_name": "Highland to Craig County, Virginia",
                "col_group": "Northern Appalachians",
                "col_group_id": 9,
                "group_col_id": "4.00",
                "lat": "38.09200",
                "lng": "-79.77200",
                "col_area": "5738.1",
                "project_id": 1,
                "col_type": "column",
                "refs": [
                    1
                ]
            },
            {
                "col_id": 42,
                "col_name": "Rockbridge & Botetourt Counties, Virginia - West of Pulaski Fault",
                "col_group": "Northern Appalachians",
                "col_group_id": 9,
                "group_col_id": "5.00",
                "lat": "37.52700",
                "lng": "-80.03500",
                "col_area": "2720.5",
                "project_id": 1,
                "col_type": "column",
                "refs": [
                    1
                ]
            },
            {
                "col_id": 43,
                "col_name": "Rockingham & Augusta Counties, Virginia - West of North Mtn Fault",
                "col_group": "Northern Appalachians",
                "col_group_id": 9,
                "group_col_id": "6.00",
                "lat": "38.43800",
                "lng": "-79.15800",
                "col_area": "3578.2",
                "project_id": 1,
                "col_type": "column",
                "refs": [
                    1
                ]
            },
            {
                "col_id": 44,
                "col_name": "Southeastern Ohio",
                "col_group": "Northern Appalachians",
                "col_group_id": 9,
                "group_col_id": "7.00",
                "lat": "39.89400",
                "lng": "-81.76000",
                "col_area": "10930.1",
                "project_id": 1,
                "col_type": "column",
                "refs": [
                    1
                ]
            },
            {
                "col_id": 45,
                "col_name": "Dunkard Basin, West Virginia",
                "col_group": "Northern Appalachians",
                "col_group_id": 9,
                "group_col_id": "8.00",
                "lat": "39.34300",
                "lng": "-80.96100",
                "col_area": "10998.4",
                "project_id": 1,
                "col_type": "column",
                "refs": [
                    1
                ]
            },
            {
                "col_id": 46,
                "col_name": "High Plateau, West Virginia",
                "col_group": "Northern Appalachians",
                "col_group_id": 9,
                "group_col_id": "9.00",
                "lat": "39.14100",
                "lng": "-80.07500",
                "col_area": "9995.4",
                "project_id": 1,
                "col_type": "column",
                "refs": [
                    1
                ]
            },
            {
                "col_id": 47,
                "col_name": "Northeast Valley & Ridge, West Virginia",
                "col_group": "Northern Appalachians",
                "col_group_id": 9,
                "group_col_id": "10.00",
                "lat": "39.04000",
                "lng": "-79.15400",
                "col_area": "4248.9",
                "project_id": 1,
                "col_type": "column",
                "refs": [
                    1
                ]
            },
            {
                "col_id": 48,
                "col_name": "Southern Papago Reservation",
                "col_group": "Southwest Mid-Continent",
                "col_group_id": 19,
                "group_col_id": "2.00",
                "lat": "32.25200",
                "lng": "-111.66500",
                "col_area": "48450.0",
                "project_id": 1,
                "col_type": "column",
                "refs": [
                    1
                ]
            },
            {
                "col_id": 49,
                "col_name": "Sonoita Area",
                "col_group": "Southwest Mid-Continent",
                "col_group_id": 19,
                "group_col_id": "3.00",
                "lat": "31.62000",
                "lng": "-110.15000",
                "col_area": "33159.3",
                "project_id": 1,
                "col_type": "column",
                "refs": [
                    1
                ]
            },
            {
                "col_id": 50,
                "col_name": "Big Hatchet Mountain Area",
                "col_group": "Southwest Mid-Continent",
                "col_group_id": 19,
                "group_col_id": "4.00",
                "lat": "31.66600",
                "lng": "-108.40000",
                "col_area": "18314.1",
                "project_id": 1,
                "col_type": "column",
                "refs": [
                    1
                ]
            },
            {
                "col_id": 52,
                "col_name": "Lone Mountain Area",
                "col_group": "Southwest Mid-Continent",
                "col_group_id": 19,
                "group_col_id": "6.00",
                "lat": "32.48300",
                "lng": "-108.25800",
                "col_area": "20334.9",
                "project_id": 1,
                "col_type": "column",
                "refs": [
                    1
                ]
            },
            {
                "col_id": 53,
                "col_name": "Black Range",
                "col_group": "Southwest Mid-Continent",
                "col_group_id": 19,
                "group_col_id": "7.00",
                "lat": "33.07500",
                "lng": "-107.50000",
                "col_area": "12271.1",
                "project_id": 1,
                "col_type": "column",
                "refs": [
                    1
                ]
            },
            {
                "col_id": 54,
                "col_name": "Franklin Mountain Cristo Rey Area",
                "col_group": "Southwest Mid-Continent",
                "col_group_id": 19,
                "group_col_id": "8.00",
                "lat": "31.90900",
                "lng": "-106.50200",
                "col_area": "14957.0",
                "project_id": 1,
                "col_type": "column",
                "refs": [
                    1
                ]
            },
            {
                "col_id": 55,
                "col_name": "Organ Mountain Southern San Andres Mountain",
                "col_group": "Southwest Mid-Continent",
                "col_group_id": 19,
                "group_col_id": "9.00",
                "lat": "32.61300",
                "lng": "-106.42100",
                "col_area": "8202.5",
                "project_id": 1,
                "col_type": "column",
                "refs": [
                    1
                ]
            },
            {
                "col_id": 57,
                "col_name": "Sierra Diablo",
                "col_group": "Southwest Mid-Continent",
                "col_group_id": 19,
                "group_col_id": "10.00",
                "lat": "31.37700",
                "lng": "-105.04600",
                "col_area": "29008.3",
                "project_id": 1,
                "col_type": "column",
                "refs": [
                    1
                ]
            },
            {
                "col_id": 58,
                "col_name": "Marathon - Big Bend Region",
                "col_group": "Southwest Mid-Continent",
                "col_group_id": 19,
                "group_col_id": "11.00",
                "lat": "29.58500",
                "lng": "-103.36600",
                "col_area": "29165.6",
                "project_id": 1,
                "col_type": "column",
                "refs": [
                    1
                ]
            },
            {
                "col_id": 59,
                "col_name": "Glass Mountain Marathon Region",
                "col_group": "Southwest Mid-Continent",
                "col_group_id": 19,
                "group_col_id": "12.00",
                "lat": "30.45200",
                "lng": "-103.00200",
                "col_area": "24602.3",
                "project_id": 1,
                "col_type": "column",
                "refs": [
                    1
                ]
            },
            {
                "col_id": 60,
                "col_name": "Quemado Fence Lake Area",
                "col_group": "Southwest Mid-Continent",
                "col_group_id": 19,
                "group_col_id": "13.00",
                "lat": "34.21600",
                "lng": "-108.39500",
                "col_area": "27521.3",
                "project_id": 1,
                "col_type": "column",
                "refs": [
                    1
                ]
            },
            {
                "col_id": 63,
                "col_name": "Northern San Andres Mountains",
                "col_group": "Southwest Mid-Continent",
                "col_group_id": 19,
                "group_col_id": "16.00",
                "lat": "33.23500",
                "lng": "-106.64200",
                "col_area": "6605.0",
                "project_id": 1,
                "col_type": "column",
                "refs": [
                    1
                ]
            },
            {
                "col_id": 64,
                "col_name": "Sacramento Mountains",
                "col_group": "Southwest Mid-Continent",
                "col_group_id": 19,
                "group_col_id": "17.00",
                "lat": "33.05100",
                "lng": "-105.60700",
                "col_area": "22085.9",
                "project_id": 1,
                "col_type": "column",
                "refs": [
                    1
                ]
            },
            {
                "col_id": 65,
                "col_name": "Carlsbad and Northern Shelf",
                "col_group": "Southwest Mid-Continent",
                "col_group_id": 19,
                "group_col_id": "18.00",
                "lat": "32.35500",
                "lng": "-104.17800",
                "col_area": "21309.1",
                "project_id": 1,
                "col_type": "column",
                "refs": [
                    1
                ]
            },
            {
                "col_id": 66,
                "col_name": "Delaware Basin",
                "col_group": "Southwest Mid-Continent",
                "col_group_id": 19,
                "group_col_id": "19.00",
                "lat": "31.47200",
                "lng": "-103.15300",
                "col_area": "18152.0",
                "project_id": 1,
                "col_type": "column",
                "refs": [
                    1
                ]
            },
            {
                "col_id": 67,
                "col_name": "Central Basin Platform",
                "col_group": "Southwest Mid-Continent",
                "col_group_id": 19,
                "group_col_id": "20.00",
                "lat": "32.35200",
                "lng": "-102.27000",
                "col_area": "25463.7",
                "project_id": 1,
                "col_type": "column",
                "refs": [
                    1
                ]
            },
            {
                "col_id": 68,
                "col_name": "Midland Basin",
                "col_group": "Southwest Mid-Continent",
                "col_group_id": 19,
                "group_col_id": "21.00",
                "lat": "31.70600",
                "lng": "-101.77500",
                "col_area": "20931.7",
                "project_id": 1,
                "col_type": "column",
                "refs": [
                    1
                ]
            },
            {
                "col_id": 69,
                "col_name": "Eastern Shelf",
                "col_group": "Southwest Mid-Continent",
                "col_group_id": 19,
                "group_col_id": "22.00",
                "lat": "31.90800",
                "lng": "-100.61600",
                "col_area": "27463.0",
                "project_id": 1,
                "col_type": "column",
                "refs": [
                    1
                ]
            },
            {
                "col_id": 70,
                "col_name": "Northwest Shelf",
                "col_group": "Southwest Mid-Continent",
                "col_group_id": 19,
                "group_col_id": "23.00",
                "lat": "33.77900",
                "lng": "-104.01600",
                "col_area": "43060.7",
                "project_id": 1,
                "col_type": "column",
                "refs": [
                    1
                ]
            },
            {
                "col_id": 71,
                "col_name": "Western Palo Duro Basin",
                "col_group": "Southwest Mid-Continent",
                "col_group_id": 19,
                "group_col_id": "24.00",
                "lat": "34.43300",
                "lng": "-101.83300",
                "col_area": "34829.0",
                "project_id": 1,
                "col_type": "column",
                "refs": [
                    1
                ]
            },
            {
                "col_id": 72,
                "col_name": "Eastern Palo Duro Basin",
                "col_group": "Southwest Mid-Continent",
                "col_group_id": 19,
                "group_col_id": "25.00",
                "lat": "33.73300",
                "lng": "-99.98300",
                "col_area": "35466.3",
                "project_id": 1,
                "col_type": "column",
                "refs": [
                    1
                ]
            },
            {
                "col_id": 73,
                "col_name": "Amarillo Arch",
                "col_group": "Southwest Mid-Continent",
                "col_group_id": 19,
                "group_col_id": "26.00",
                "lat": "35.50000",
                "lng": "-101.57800",
                "col_area": "27171.2",
                "project_id": 1,
                "col_type": "column",
                "refs": [
                    1
                ]
            },
            {
                "col_id": 74,
                "col_name": "Western Oklahoma",
                "col_group": "Southwest Mid-Continent",
                "col_group_id": 19,
                "group_col_id": "27.00",
                "lat": "35.93600",
                "lng": "-99.25100",
                "col_area": "41760.4",
                "project_id": 1,
                "col_type": "column",
                "refs": [
                    1
                ]
            },
            {
                "col_id": 75,
                "col_name": "Texas Panhandle",
                "col_group": "Southwest Mid-Continent",
                "col_group_id": 19,
                "group_col_id": "28.00",
                "lat": "36.38000",
                "lng": "-100.88600",
                "col_area": "23792.1",
                "project_id": 1,
                "col_type": "column",
                "refs": [
                    1
                ]
            },
            {
                "col_id": 76,
                "col_name": "Hugoton Embayment-kansas",
                "col_group": "Southwest Mid-Continent",
                "col_group_id": 19,
                "group_col_id": "29.00",
                "lat": "37.58300",
                "lng": "-101.28300",
                "col_area": "28648.3",
                "project_id": 1,
                "col_type": "column",
                "refs": [
                    1
                ]
            },
            {
                "col_id": 77,
                "col_name": "Las Animas Arch-colorado",
                "col_group": "Southwest Mid-Continent",
                "col_group_id": 19,
                "group_col_id": "30.00",
                "lat": "38.28300",
                "lng": "-102.56600",
                "col_area": "26870.7",
                "project_id": 1,
                "col_type": "column",
                "refs": [
                    1
                ]
            },
            {
                "col_id": 78,
                "col_name": "Las Animas Arch-kansas",
                "col_group": "Southwest Mid-Continent",
                "col_group_id": 19,
                "group_col_id": "31.00",
                "lat": "39.47600",
                "lng": "-101.17500",
                "col_area": "28375.1",
                "project_id": 1,
                "col_type": "column",
                "refs": [
                    1
                ]
            },
            {
                "col_id": 79,
                "col_name": "Plymouth/Cheeroke Counties, Iowa",
                "col_group": "Midcontinent",
                "col_group_id": 7,
                "group_col_id": "2.00",
                "lat": "42.73800",
                "lng": "-95.85000",
                "col_area": "12599.0",
                "project_id": 1,
                "col_type": "column",
                "refs": [
                    1
                ]
            },
            {
                "col_id": 80,
                "col_name": "Webster County, Iowa",
                "col_group": "Midcontinent",
                "col_group_id": 7,
                "group_col_id": "3.00",
                "lat": "42.51100",
                "lng": "-94.24100",
                "col_area": "21693.3",
                "project_id": 1,
                "col_type": "column",
                "refs": [
                    1
                ]
            },
            {
                "col_id": 81,
                "col_name": "Butler County, Iowa",
                "col_group": "Midcontinent",
                "col_group_id": 7,
                "group_col_id": "4.00",
                "lat": "42.75100",
                "lng": "-92.79800",
                "col_area": "16088.8",
                "project_id": 1,
                "col_type": "column",
                "refs": [
                    1
                ]
            },
            {
                "col_id": 82,
                "col_name": "Linn/Benton Counties, Iowa",
                "col_group": "Midcontinent",
                "col_group_id": 7,
                "group_col_id": "5.00",
                "lat": "42.07000",
                "lng": "-91.82800",
                "col_area": "18972.0",
                "project_id": 1,
                "col_type": "column",
                "refs": [
                    1
                ]
            },
            {
                "col_id": 83,
                "col_name": "Des Moines County, Iowa",
                "col_group": "Midcontinent",
                "col_group_id": 7,
                "group_col_id": "6.00",
                "lat": "40.96600",
                "lng": "-91.17000",
                "col_area": "21391.2",
                "project_id": 1,
                "col_type": "column",
                "refs": [
                    1
                ]
            },
            {
                "col_id": 84,
                "col_name": "Sheridan County, Nebraska",
                "col_group": "Midcontinent",
                "col_group_id": 7,
                "group_col_id": "7.00",
                "lat": "42.55100",
                "lng": "-102.35400",
                "col_area": "44069.3",
                "project_id": 1,
                "col_type": "column",
                "refs": [
                    1
                ]
            },
            {
                "col_id": 85,
                "col_name": "Rock County, Nebraska",
                "col_group": "Midcontinent",
                "col_group_id": 7,
                "group_col_id": "8.00",
                "lat": "42.40200",
                "lng": "-99.45100",
                "col_area": "42022.1",
                "project_id": 1,
                "col_type": "column",
                "refs": [
                    1
                ]
            },
            {
                "col_id": 86,
                "col_name": "Stanton County, Nebraska",
                "col_group": "Midcontinent",
                "col_group_id": 7,
                "group_col_id": "9.00",
                "lat": "41.95000",
                "lng": "-97.33300",
                "col_area": "30143.8",
                "project_id": 1,
                "col_type": "column",
                "refs": [
                    1
                ]
            },
            {
                "col_id": 87,
                "col_name": "Sarpy County, Nebraska",
                "col_group": "Midcontinent",
                "col_group_id": 7,
                "group_col_id": "10.00",
                "lat": "41.12300",
                "lng": "-96.09500",
                "col_area": "10282.8",
                "project_id": 1,
                "col_type": "column",
                "refs": [
                    1
                ]
            },
            {
                "col_id": 88,
                "col_name": "Harrison/Pottawattomie Counties, Iowa",
                "col_group": "Midcontinent",
                "col_group_id": 7,
                "group_col_id": "11.00",
                "lat": "41.58200",
                "lng": "-95.62600",
                "col_area": "12516.0",
                "project_id": 1,
                "col_type": "column",
                "refs": [
                    1
                ]
            },
            {
                "col_id": 89,
                "col_name": "Dallas/Madison Counties, Iowa",
                "col_group": "Midcontinent",
                "col_group_id": 7,
                "group_col_id": "12.00",
                "lat": "41.54300",
                "lng": "-94.03100",
                "col_area": "19038.3",
                "project_id": 1,
                "col_type": "column",
                "refs": [
                    1
                ]
            },
            {
                "col_id": 90,
                "col_name": "Appanoose County, Iowa",
                "col_group": "Midcontinent",
                "col_group_id": 7,
                "group_col_id": "13.00",
                "lat": "40.72100",
                "lng": "-92.91300",
                "col_area": "28777.4",
                "project_id": 1,
                "col_type": "column",
                "refs": [
                    1
                ]
            },
            {
                "col_id": 91,
                "col_name": "Marion County, Missouri",
                "col_group": "Midcontinent",
                "col_group_id": 7,
                "group_col_id": "14.00",
                "lat": "39.82800",
                "lng": "-91.62500",
                "col_area": "16719.8",
                "project_id": 1,
                "col_type": "column",
                "refs": [
                    1
                ]
            },
            {
                "col_id": 92,
                "col_name": "Redwillow County, Nebraska",
                "col_group": "Midcontinent",
                "col_group_id": 7,
                "group_col_id": "15.00",
                "lat": "40.23100",
                "lng": "-100.42300",
                "col_area": "35932.7",
                "project_id": 1,
                "col_type": "column",
                "refs": [
                    1
                ]
            },
            {
                "col_id": 93,
                "col_name": "Ellis/trego Counties, Kansas",
                "col_group": "Midcontinent",
                "col_group_id": 7,
                "group_col_id": "16.00",
                "lat": "38.92800",
                "lng": "-99.59500",
                "col_area": "23182.1",
                "project_id": 1,
                "col_type": "column",
                "refs": [
                    1
                ]
            },
            {
                "col_id": 94,
                "col_name": "Colville Delta",
                "col_group": "Northern Alaska",
                "col_group_id": 8,
                "group_col_id": "2.00",
                "lat": "70.26000",
                "lng": "-151.26900",
                "col_area": "17893.2",
                "project_id": 1,
                "col_type": "column",
                "refs": [
                    1
                ]
            },
            {
                "col_id": 95,
                "col_name": "West Sak",
                "col_group": "Northern Alaska",
                "col_group_id": 8,
                "group_col_id": "3.00",
                "lat": "70.34300",
                "lng": "-149.27600",
                "col_area": "9473.3",
                "project_id": 1,
                "col_type": "column",
                "refs": [
                    1
                ]
            },
            {
                "col_id": 96,
                "col_name": "Prudhoe",
                "col_group": "Northern Alaska",
                "col_group_id": 8,
                "group_col_id": "4.00",
                "lat": "69.88900",
                "lng": "-147.65300",
                "col_area": "16862.5",
                "project_id": 1,
                "col_type": "column",
                "refs": [
                    1
                ]
            },
            {
                "col_id": 97,
                "col_name": "Canning River Delta",
                "col_group": "Northern Alaska",
                "col_group_id": 8,
                "group_col_id": "5.00",
                "lat": "70.01500",
                "lng": "-145.66800",
                "col_area": "23483.4",
                "project_id": 1,
                "col_type": "column",
                "refs": [
                    1
                ]
            },
            {
                "col_id": 98,
                "col_name": "Northern Arctic National Wildlife Refuge",
                "col_group": "Northern Alaska",
                "col_group_id": 8,
                "group_col_id": "6.00",
                "lat": "69.79300",
                "lng": "-143.47900",
                "col_area": "14144.5",
                "project_id": 1,
                "col_type": "column",
                "refs": [
                    1
                ]
            },
            {
                "col_id": 99,
                "col_name": "Mitchell County, Kansas",
                "col_group": "Midcontinent",
                "col_group_id": 7,
                "group_col_id": "17.00",
                "lat": "39.44800",
                "lng": "-98.24900",
                "col_area": "31959.9",
                "project_id": 1,
                "col_type": "column",
                "refs": [
                    1
                ]
            },
            {
                "col_id": 100,
                "col_name": "Pottawotomie County, Kansas",
                "col_group": "Midcontinent",
                "col_group_id": 7,
                "group_col_id": "18.00",
                "lat": "39.36000",
                "lng": "-96.60000",
                "col_area": "15671.5",
                "project_id": 1,
                "col_type": "column",
                "refs": [
                    1
                ]
            },
            {
                "col_id": 101,
                "col_name": "Jackson County, Kansas",
                "col_group": "Midcontinent",
                "col_group_id": 7,
                "group_col_id": "19.00",
                "lat": "39.44600",
                "lng": "-95.77300",
                "col_area": "18752.7",
                "project_id": 1,
                "col_type": "column",
                "refs": [
                    1
                ]
            },
            {
                "col_id": 103,
                "col_name": "Atchinson County, Missouri",
                "col_group": "Midcontinent",
                "col_group_id": 7,
                "group_col_id": "21.00",
                "lat": "40.43300",
                "lng": "-95.40800",
                "col_area": "19300.6",
                "project_id": 1,
                "col_type": "column",
                "refs": [
                    1
                ]
            },
            {
                "col_id": 104,
                "col_name": "Boone County, Missouri",
                "col_group": "Midcontinent",
                "col_group_id": 7,
                "group_col_id": "22.00",
                "lat": "38.91300",
                "lng": "-92.29800",
                "col_area": "42828.9",
                "project_id": 1,
                "col_type": "column",
                "refs": [
                    1
                ]
            },
            {
                "col_id": 105,
                "col_name": "Perry County, Missouri",
                "col_group": "Midcontinent",
                "col_group_id": 7,
                "group_col_id": "23.00",
                "lat": "37.71900",
                "lng": "-89.86600",
                "col_area": "31312.4",
                "project_id": 1,
                "col_type": "column",
                "refs": [
                    1
                ]
            },
            {
                "col_id": 106,
                "col_name": "Stafford County, Kansas",
                "col_group": "Midcontinent",
                "col_group_id": 7,
                "group_col_id": "24.00",
                "lat": "38.20000",
                "lng": "-98.70700",
                "col_area": "18981.6",
                "project_id": 1,
                "col_type": "column",
                "refs": [
                    1
                ]
            },
            {
                "col_id": 107,
                "col_name": "Kingman County, Kansas",
                "col_group": "Midcontinent",
                "col_group_id": 7,
                "group_col_id": "25.00",
                "lat": "37.43600",
                "lng": "-98.23100",
                "col_area": "24147.3",
                "project_id": 1,
                "col_type": "column",
                "refs": [
                    1
                ]
            },
            {
                "col_id": 108,
                "col_name": "Butler County, Kansas",
                "col_group": "Midcontinent",
                "col_group_id": 7,
                "group_col_id": "26.00",
                "lat": "37.76600",
                "lng": "-96.75100",
                "col_area": "24896.4",
                "project_id": 1,
                "col_type": "column",
                "refs": [
                    1
                ]
            },
            {
                "col_id": 109,
                "col_name": "Vernon County, Missouri",
                "col_group": "Midcontinent",
                "col_group_id": 7,
                "group_col_id": "27.00",
                "lat": "37.97000",
                "lng": "-94.47800",
                "col_area": "36881.7",
                "project_id": 1,
                "col_type": "column",
                "refs": [
                    1
                ]
            },
            {
                "col_id": 110,
                "col_name": "Barry County, Missouri",
                "col_group": "Midcontinent",
                "col_group_id": 7,
                "group_col_id": "28.00",
                "lat": "36.88600",
                "lng": "-93.85700",
                "col_area": "35317.1",
                "project_id": 1,
                "col_type": "column",
                "refs": [
                    1
                ]
            },
            {
                "col_id": 111,
                "col_name": "Cost G2 Well Georges Bank Basin",
                "col_group": "Atlantic Coastal Plain",
                "col_group_id": 1,
                "group_col_id": "2.00",
                "lat": "40.83300",
                "lng": "-67.50000",
                "col_area": "17274.5",
                "project_id": 1,
                "col_type": "column",
                "refs": [
                    1
                ]
            },
            {
                "col_id": 148,
                "col_name": "Mcalester Basin Portion of Arkoma Basin",
                "col_group": "Texas-Oklahoma Tectonic Region",
                "col_group_id": 20,
                "group_col_id": "4.00",
                "lat": "35.07800",
                "lng": "-94.95100",
                "col_area": "23990.7",
                "project_id": 1,
                "col_type": "column",
                "refs": [
                    1
                ]
            },
            {
                "col_id": 151,
                "col_name": "North Central Foothills and Subsurface",
                "col_group": "Northern Alaska",
                "col_group_id": 8,
                "group_col_id": "9.00",
                "lat": "68.88700",
                "lng": "-148.90500",
                "col_area": "19714.1",
                "project_id": 1,
                "col_type": "column",
                "refs": [
                    1
                ]
            },
            {
                "col_id": 152,
                "col_name": "Romanzof - British Mountains",
                "col_group": "Northern Alaska",
                "col_group_id": 8,
                "group_col_id": "10.00",
                "lat": "69.04600",
                "lng": "-142.44600",
                "col_area": "22714.6",
                "project_id": 1,
                "col_type": "column",
                "refs": [
                    1
                ]
            },
            {
                "col_id": 154,
                "col_name": "Ipnavik Allochthon",
                "col_group": "Northern Alaska",
                "col_group_id": 8,
                "group_col_id": "12.00",
                "lat": "68.37400",
                "lng": "-156.70000",
                "col_area": "38626.1",
                "project_id": 1,
                "col_type": "column",
                "refs": [
                    1
                ]
            },
            {
                "col_id": 155,
                "col_name": "Kelly River Allochthon",
                "col_group": "Northern Alaska",
                "col_group_id": 8,
                "group_col_id": "13.00",
                "lat": "68.20900",
                "lng": "-162.72900",
                "col_area": "60407.5",
                "project_id": 1,
                "col_type": "column",
                "refs": [
                    1
                ]
            },
            {
                "col_id": 157,
                "col_name": "Arkansas Basin Portion of Arkoma Basin",
                "col_group": "Texas-Oklahoma Tectonic Region",
                "col_group_id": 20,
                "group_col_id": "5.00",
                "lat": "35.52500",
                "lng": "-92.89500",
                "col_area": "46089.7",
                "project_id": 1,
                "col_type": "column",
                "refs": [
                    1
                ]
            },
            {
                "col_id": 158,
                "col_name": "Central Southern Oklahoma and Southwestern Oklahoma, Southern Oklahoma Fold",
                "col_group": "Texas-Oklahoma Tectonic Region",
                "col_group_id": 20,
                "group_col_id": "6.00",
                "lat": "34.26100",
                "lng": "-97.49500",
                "col_area": "23283.9",
                "project_id": 1,
                "col_type": "column",
                "refs": [
                    1
                ]
            },
            {
                "col_id": 159,
                "col_name": "Cooke and Grayson Counties, Texas, Southern Oklahoma Folded Belt",
                "col_group": "Texas-Oklahoma Tectonic Region",
                "col_group_id": 20,
                "group_col_id": "7.00",
                "lat": "33.45000",
                "lng": "-96.97100",
                "col_area": "21134.2",
                "project_id": 1,
                "col_type": "column",
                "refs": [
                    1
                ]
            },
            {
                "col_id": 160,
                "col_name": "Bend Arch",
                "col_group": "Texas-Oklahoma Tectonic Region",
                "col_group_id": 20,
                "group_col_id": "8.00",
                "lat": "32.62300",
                "lng": "-99.44500",
                "col_area": "18948.2",
                "project_id": 1,
                "col_type": "column",
                "refs": [
                    1
                ]
            },
            {
                "col_id": 161,
                "col_name": "Fort Worth Basin",
                "col_group": "Texas-Oklahoma Tectonic Region",
                "col_group_id": 20,
                "group_col_id": "9.00",
                "lat": "33.36300",
                "lng": "-98.07000",
                "col_area": "19960.0",
                "project_id": 1,
                "col_type": "column",
                "refs": [
                    1
                ]
            },
            {
                "col_id": 162,
                "col_name": "Strawn Basin",
                "col_group": "Texas-Oklahoma Tectonic Region",
                "col_group_id": 20,
                "group_col_id": "10.00",
                "lat": "32.03300",
                "lng": "-98.36600",
                "col_area": "15134.7",
                "project_id": 1,
                "col_type": "column",
                "refs": [
                    1
                ]
            },
            {
                "col_id": 163,
                "col_name": "Llano Uplift",
                "col_group": "Texas-Oklahoma Tectonic Region",
                "col_group_id": 20,
                "group_col_id": "11.00",
                "lat": "31.13300",
                "lng": "-98.74100",
                "col_area": "20869.6",
                "project_id": 1,
                "col_type": "column",
                "refs": [
                    1
                ]
            },
            {
                "col_id": 164,
                "col_name": "Kerr Basin",
                "col_group": "Texas-Oklahoma Tectonic Region",
                "col_group_id": 20,
                "group_col_id": "12.00",
                "lat": "30.30000",
                "lng": "-99.41600",
                "col_area": "22138.2",
                "project_id": 1,
                "col_type": "column",
                "refs": [
                    1
                ]
            },
            {
                "col_id": 168,
                "col_name": "Devils River Uplift Portion of Ouachita Tectonic Belt",
                "col_group": "Texas-Oklahoma Tectonic Region",
                "col_group_id": 20,
                "group_col_id": "16.00",
                "lat": "29.65800",
                "lng": "-100.37800",
                "col_area": "28588.3",
                "project_id": 1,
                "col_type": "column",
                "refs": [
                    1
                ]
            },
            {
                "col_id": 169,
                "col_name": "Black Warrior Basin Prentiss County, Mississippi",
                "col_group": "Texas-Oklahoma Tectonic Region",
                "col_group_id": 20,
                "group_col_id": "17.00",
                "lat": "34.63300",
                "lng": "-88.54100",
                "col_area": "19764.8",
                "project_id": 1,
                "col_type": "column",
                "refs": [
                    1
                ]
            },
            {
                "col_id": 170,
                "col_name": "Black Warrior Basin Oktibbeha County, Mississippi",
                "col_group": "Texas-Oklahoma Tectonic Region",
                "col_group_id": 20,
                "group_col_id": "18.00",
                "lat": "33.44500",
                "lng": "-88.87500",
                "col_area": "19926.0",
                "project_id": 1,
                "col_type": "column",
                "refs": [
                    1
                ]
            },
            {
                "col_id": 171,
                "col_name": "Black Warrior Basin Cullman County, Alabama",
                "col_group": "Texas-Oklahoma Tectonic Region",
                "col_group_id": 20,
                "group_col_id": "19.00",
                "lat": "34.23000",
                "lng": "-87.02000",
                "col_area": "7606.7",
                "project_id": 1,
                "col_type": "column",
                "refs": [
                    1
                ]
            },
            {
                "col_id": 172,
                "col_name": "Jackson County (formerly Washabaugh County), South Dakota",
                "col_group": "Northern Mid-Continent",
                "col_group_id": 12,
                "group_col_id": "1.00",
                "lat": "43.51600",
                "lng": "-102.75800",
                "col_area": "23881.4",
                "project_id": 1,
                "col_type": "column",
                "refs": [
                    1
                ]
            },
            {
                "col_id": 174,
                "col_name": "Brown County, South Dakota",
                "col_group": "Northern Mid-Continent",
                "col_group_id": 12,
                "group_col_id": "3.00",
                "lat": "45.57500",
                "lng": "-98.17800",
                "col_area": "33812.8",
                "project_id": 1,
                "col_type": "column",
                "refs": [
                    1
                ]
            },
            {
                "col_id": 175,
                "col_name": "Kittson County, Minnesota",
                "col_group": "Northern Mid-Continent",
                "col_group_id": 12,
                "group_col_id": "4.00",
                "lat": "48.83000",
                "lng": "-96.84100",
                "col_area": "36352.9",
                "project_id": 1,
                "col_type": "column",
                "refs": [
                    1
                ]
            },
            {
                "col_id": 176,
                "col_name": "Union County, South Dakota",
                "col_group": "Northern Mid-Continent",
                "col_group_id": 12,
                "group_col_id": "5.00",
                "lat": "42.91600",
                "lng": "-96.71600",
                "col_area": "11721.6",
                "project_id": 1,
                "col_type": "column",
                "refs": [
                    1
                ]
            },
            {
                "col_id": 178,
                "col_name": "Minnesota River Valley, Big Stone to Nicollet Counties, Minnesota",
                "col_group": "Northern Mid-Continent",
                "col_group_id": 12,
                "group_col_id": "7.00",
                "lat": "44.76700",
                "lng": "-95.42300",
                "col_area": "36116.7",
                "project_id": 1,
                "col_type": "column",
                "refs": [
                    1
                ]
            },
            {
                "col_id": 179,
                "col_name": "Stearns County, Minnesota",
                "col_group": "Northern Mid-Continent",
                "col_group_id": 12,
                "group_col_id": "8.00",
                "lat": "45.61600",
                "lng": "-94.37700",
                "col_area": "25895.1",
                "project_id": 1,
                "col_type": "column",
                "refs": [
                    1
                ]
            },
            {
                "col_id": 180,
                "col_name": "Crow Wing County, Minnesota",
                "col_group": "Northern Mid-Continent",
                "col_group_id": 12,
                "group_col_id": "9.00",
                "lat": "46.63300",
                "lng": "-94.09100",
                "col_area": "31876.1",
                "project_id": 1,
                "col_type": "column",
                "refs": [
                    1
                ]
            },
            {
                "col_id": 185,
                "col_name": "Freeborn County, Minnesota",
                "col_group": "Northern Mid-Continent",
                "col_group_id": 12,
                "group_col_id": "14.00",
                "lat": "43.70000",
                "lng": "-92.85000",
                "col_area": "34919.0",
                "project_id": 1,
                "col_type": "column",
                "refs": [
                    1
                ]
            },
            {
                "col_id": 186,
                "col_name": "Grant County, Wisconsin",
                "col_group": "Northern Mid-Continent",
                "col_group_id": 12,
                "group_col_id": "15.00",
                "lat": "42.78300",
                "lng": "-90.49000",
                "col_area": "24422.5",
                "project_id": 1,
                "col_type": "column",
                "refs": [
                    1
                ]
            },
            {
                "col_id": 187,
                "col_name": "Baraboo District, Sauk County, Wisconsin",
                "col_group": "Northern Mid-Continent",
                "col_group_id": 12,
                "group_col_id": "16.00",
                "lat": "43.23300",
                "lng": "-89.75600",
                "col_area": "18140.9",
                "project_id": 1,
                "col_type": "column",
                "refs": [
                    1
                ]
            },
            {
                "col_id": 188,
                "col_name": "Fond Du Lac County, Wisconsin",
                "col_group": "Northern Mid-Continent",
                "col_group_id": 12,
                "group_col_id": "17.00",
                "lat": "43.36100",
                "lng": "-88.35000",
                "col_area": "23226.1",
                "project_id": 1,
                "col_type": "column",
                "refs": [
                    1
                ]
            },
            {
                "col_id": 192,
                "col_name": "Gogebic Range, Gogebic County, Michigan",
                "col_group": "Northern Mid-Continent",
                "col_group_id": 12,
                "group_col_id": "21.00",
                "lat": "46.36600",
                "lng": "-89.68200",
                "col_area": "13468.9",
                "project_id": 1,
                "col_type": "column",
                "refs": [
                    1
                ]
            },
            {
                "col_id": 193,
                "col_name": "Watersmeet Area, Gogebic County, Michigan",
                "col_group": "Northern Mid-Continent",
                "col_group_id": 12,
                "group_col_id": "22.00",
                "lat": "46.20700",
                "lng": "-89.03900",
                "col_area": "11111.6",
                "project_id": 1,
                "col_type": "column",
                "refs": [
                    1
                ]
            },
            {
                "col_id": 194,
                "col_name": "Amasa Oval, Iron County, Michigan",
                "col_group": "Northern Mid-Continent",
                "col_group_id": 12,
                "group_col_id": "23.00",
                "lat": "46.34700",
                "lng": "-88.19100",
                "col_area": "8274.8",
                "project_id": 1,
                "col_type": "column",
                "refs": [
                    1
                ]
            },
            {
                "col_id": 195,
                "col_name": "Marquette District, Marquette County, Michigan",
                "col_group": "Northern Mid-Continent",
                "col_group_id": 12,
                "group_col_id": "24.00",
                "lat": "46.57800",
                "lng": "-87.64000",
                "col_area": "22234.2",
                "project_id": 1,
                "col_type": "column",
                "refs": [
                    1
                ]
            },
            {
                "col_id": 196,
                "col_name": "Central Dickinson County, Michigan",
                "col_group": "Northern Mid-Continent",
                "col_group_id": 12,
                "group_col_id": "25.00",
                "lat": "46.03400",
                "lng": "-87.81300",
                "col_area": "11090.3",
                "project_id": 1,
                "col_type": "column",
                "refs": [
                    1
                ]
            },
            {
                "col_id": 205,
                "col_name": "San Fernando - Santa Susana Mountains",
                "col_group": "Southern California",
                "col_group_id": 18,
                "group_col_id": "8.00",
                "lat": "34.30300",
                "lng": "-118.52500",
                "col_area": "1433.8",
                "project_id": 1,
                "col_type": "column",
                "refs": [
                    1
                ]
            },
            {
                "col_id": 213,
                "col_name": "Savioyuk Syncline",
                "col_group": "Northern Alaska",
                "col_group_id": 8,
                "group_col_id": "17.00",
                "lat": "67.48200",
                "lng": "-151.72300",
                "col_area": "13119.1",
                "project_id": 1,
                "col_type": "column",
                "refs": [
                    1
                ]
            },
            {
                "col_id": 226,
                "col_name": "Victorville",
                "col_group": "Southern California",
                "col_group_id": 18,
                "group_col_id": "25.00",
                "lat": "34.51200",
                "lng": "-117.32800",
                "col_area": "1998.6",
                "project_id": 1,
                "col_type": "column",
                "refs": [
                    1
                ]
            },
            {
                "col_id": 228,
                "col_name": "Barstow",
                "col_group": "Southern California",
                "col_group_id": 18,
                "group_col_id": "27.00",
                "lat": "34.89000",
                "lng": "-116.92000",
                "col_area": "5942.8",
                "project_id": 1,
                "col_type": "column",
                "refs": [
                    1
                ]
            },
            {
                "col_id": 230,
                "col_name": "Old Dad Mountains",
                "col_group": "Southern California",
                "col_group_id": 18,
                "group_col_id": "29.00",
                "lat": "34.84600",
                "lng": "-115.80400",
                "col_area": "8294.7",
                "project_id": 1,
                "col_type": "column",
                "refs": [
                    1
                ]
            },
            {
                "col_id": 231,
                "col_name": "Mescal Range-Providence Mountains",
                "col_group": "Southern California",
                "col_group_id": 18,
                "group_col_id": "30.00",
                "lat": "35.43300",
                "lng": "-115.33300",
                "col_area": "17192.9",
                "project_id": 1,
                "col_type": "column",
                "refs": [
                    1
                ]
            },
            {
                "col_id": 266,
                "col_name": "Central Coastal Range",
                "col_group": "Northwest",
                "col_group_id": 14,
                "group_col_id": "6.00",
                "lat": "44.61100",
                "lng": "-123.89600",
                "col_area": "7756.4",
                "project_id": 1,
                "col_type": "column",
                "refs": [
                    1
                ]
            },
            {
                "col_id": 271,
                "col_name": "Eastern Endicott Mountains Allochthon",
                "col_group": "Northern Alaska",
                "col_group_id": 8,
                "group_col_id": "18.00",
                "lat": "68.29600",
                "lng": "-151.69500",
                "col_area": "9064.5",
                "project_id": 1,
                "col_type": "column",
                "refs": [
                    1
                ]
            },
            {
                "col_id": 272,
                "col_name": "Mount Doonerak",
                "col_group": "Northern Alaska",
                "col_group_id": 8,
                "group_col_id": "19.00",
                "lat": "67.90700",
                "lng": "-150.63300",
                "col_area": "9718.1",
                "project_id": 1,
                "col_type": "column",
                "refs": [
                    1
                ]
            },
            {
                "col_id": 273,
                "col_name": "Hub Mountain",
                "col_group": "Northern Alaska",
                "col_group_id": 8,
                "group_col_id": "20.00",
                "lat": "67.38900",
                "lng": "-159.92200",
                "col_area": "32917.2",
                "project_id": 1,
                "col_type": "column",
                "refs": [
                    1
                ]
            },
            {
                "col_id": 274,
                "col_name": "Southern Wiseman Quadrangle",
                "col_group": "Northern Alaska",
                "col_group_id": 8,
                "group_col_id": "22.00",
                "lat": "67.04800",
                "lng": "-150.09500",
                "col_area": "20481.2",
                "project_id": 1,
                "col_type": "column",
                "refs": [
                    1
                ]
            },
            {
                "col_id": 288,
                "col_name": "Survey Pass Composite",
                "col_group": "Northern Alaska",
                "col_group_id": 8,
                "group_col_id": "21.00",
                "lat": "67.70700",
                "lng": "-154.90900",
                "col_area": "24727.2",
                "project_id": 1,
                "col_type": "column",
                "refs": [
                    1
                ]
            },
            {
                "col_id": 292,
                "col_name": "Pullman, Wa. to Snake River Gorge, Wa. Or Id.",
                "col_group": "Northwest",
                "col_group_id": 14,
                "group_col_id": "27.00",
                "lat": "46.55600",
                "lng": "-117.19900",
                "col_area": "34511.4",
                "project_id": 1,
                "col_type": "column",
                "refs": [
                    1
                ]
            },
            {
                "col_id": 293,
                "col_name": "Baker County and Wallowa Mountains, Oregon",
                "col_group": "Northwest",
                "col_group_id": 14,
                "group_col_id": "28.00",
                "lat": "44.99500",
                "lng": "-117.39400",
                "col_area": "31115.2",
                "project_id": 1,
                "col_type": "column",
                "refs": [
                    1
                ]
            },
            {
                "col_id": 297,
                "col_name": "Washington County, Maryland",
                "col_group": "Northern Appalachians",
                "col_group_id": 9,
                "group_col_id": "14.00",
                "lat": "39.69600",
                "lng": "-77.99500",
                "col_area": "4416.3",
                "project_id": 1,
                "col_type": "column",
                "refs": [
                    1
                ]
            },
            {
                "col_id": 298,
                "col_name": "North-central Ohio",
                "col_group": "Northern Appalachians",
                "col_group_id": 9,
                "group_col_id": "15.00",
                "lat": "40.60800",
                "lng": "-82.74100",
                "col_area": "13089.8",
                "project_id": 1,
                "col_type": "column",
                "refs": [
                    1
                ]
            },
            {
                "col_id": 299,
                "col_name": "East-central Ohio",
                "col_group": "Northern Appalachians",
                "col_group_id": 9,
                "group_col_id": "16.00",
                "lat": "40.57700",
                "lng": "-81.29300",
                "col_area": "13232.7",
                "project_id": 1,
                "col_type": "column",
                "refs": [
                    1
                ]
            },
            {
                "col_id": 300,
                "col_name": "Southwestern Pennsylvania",
                "col_group": "Northern Appalachians",
                "col_group_id": 9,
                "group_col_id": "17.00",
                "lat": "40.52800",
                "lng": "-79.56300",
                "col_area": "17251.1",
                "project_id": 1,
                "col_type": "column",
                "refs": [
                    1
                ]
            },
            {
                "col_id": 301,
                "col_name": "South-central Pennsylvania",
                "col_group": "Northern Appalachians",
                "col_group_id": 9,
                "group_col_id": "18.00",
                "lat": "40.29100",
                "lng": "-77.89000",
                "col_area": "12044.4",
                "project_id": 1,
                "col_type": "column",
                "refs": [
                    1
                ]
            },
            {
                "col_id": 302,
                "col_name": "Southeastern Pennsylvania",
                "col_group": "Northern Appalachians",
                "col_group_id": 9,
                "group_col_id": "19.00",
                "lat": "40.21100",
                "lng": "-76.97000",
                "col_area": "9633.2",
                "project_id": 1,
                "col_type": "column",
                "refs": [
                    1
                ]
            },
            {
                "col_id": 303,
                "col_name": "Northeastern Ohio",
                "col_group": "Northern Appalachians",
                "col_group_id": 9,
                "group_col_id": "20.00",
                "lat": "41.30600",
                "lng": "-81.63300",
                "col_area": "18497.6",
                "project_id": 1,
                "col_type": "column",
                "refs": [
                    1
                ]
            },
            {
                "col_id": 304,
                "col_name": "Northwest Pennsylvania",
                "col_group": "Northern Appalachians",
                "col_group_id": 9,
                "group_col_id": "21.00",
                "lat": "41.67300",
                "lng": "-79.29100",
                "col_area": "20215.5",
                "project_id": 1,
                "col_type": "column",
                "refs": [
                    1
                ]
            },
            {
                "col_id": 305,
                "col_name": "North-central Pennsylvania",
                "col_group": "Northern Appalachians",
                "col_group_id": 9,
                "group_col_id": "22.00",
                "lat": "41.64300",
                "lng": "-77.32000",
                "col_area": "20502.5",
                "project_id": 1,
                "col_type": "column",
                "refs": [
                    1
                ]
            },
            {
                "col_id": 306,
                "col_name": "Northeast Pennsylvania",
                "col_group": "Northern Appalachians",
                "col_group_id": 9,
                "group_col_id": "23.00",
                "lat": "41.54300",
                "lng": "-75.20000",
                "col_area": "11981.7",
                "project_id": 1,
                "col_type": "column",
                "refs": [
                    1
                ]
            },
            {
                "col_id": 307,
                "col_name": "Eastern Pennsylvania",
                "col_group": "Northern Appalachians",
                "col_group_id": 9,
                "group_col_id": "24.00",
                "lat": "40.96100",
                "lng": "-75.81000",
                "col_area": "11732.2",
                "project_id": 1,
                "col_type": "column",
                "refs": [
                    1
                ]
            },
            {
                "col_id": 308,
                "col_name": "Northwestern New Jersey",
                "col_group": "Northern Appalachians",
                "col_group_id": 9,
                "group_col_id": "25.00",
                "lat": "40.68600",
                "lng": "-74.87500",
                "col_area": "2982.2",
                "project_id": 1,
                "col_type": "column",
                "refs": [
                    1
                ]
            },
            {
                "col_id": 309,
                "col_name": "Green Pond Mountain Region, New Jersey",
                "col_group": "Northern Appalachians",
                "col_group_id": 9,
                "group_col_id": "26.00",
                "lat": "40.99300",
                "lng": "-74.53700",
                "col_area": "4577.9",
                "project_id": 1,
                "col_type": "column",
                "refs": [
                    1
                ]
            },
            {
                "col_id": 310,
                "col_name": "Western New York",
                "col_group": "Northern Appalachians",
                "col_group_id": 9,
                "group_col_id": "27.00",
                "lat": "42.58300",
                "lng": "-78.62300",
                "col_area": "18733.5",
                "project_id": 1,
                "col_type": "column",
                "refs": [
                    1
                ]
            },
            {
                "col_id": 311,
                "col_name": "West-central New York",
                "col_group": "Northern Appalachians",
                "col_group_id": 9,
                "group_col_id": "28.00",
                "lat": "42.96000",
                "lng": "-77.03300",
                "col_area": "26811.3",
                "project_id": 1,
                "col_type": "column",
                "refs": [
                    1
                ]
            },
            {
                "col_id": 312,
                "col_name": "East-central New York",
                "col_group": "Northern Appalachians",
                "col_group_id": 9,
                "group_col_id": "29.00",
                "lat": "43.11600",
                "lng": "-75.77800",
                "col_area": "24062.0",
                "project_id": 1,
                "col_type": "column",
                "refs": [
                    1
                ]
            },
            {
                "col_id": 313,
                "col_name": "Eastern New York",
                "col_group": "Northern Appalachians",
                "col_group_id": 9,
                "group_col_id": "30.00",
                "lat": "42.56100",
                "lng": "-74.30000",
                "col_area": "10773.0",
                "project_id": 1,
                "col_type": "column",
                "refs": [
                    1
                ]
            },
            {
                "col_id": 314,
                "col_name": "Southeastern New York",
                "col_group": "Northern Appalachians",
                "col_group_id": 9,
                "group_col_id": "31.00",
                "lat": "41.82400",
                "lng": "-74.15900",
                "col_area": "6315.5",
                "project_id": 1,
                "col_type": "column",
                "refs": [
                    1
                ]
            },
            {
                "col_id": 315,
                "col_name": "Adirondack Mountains and Champlain Valley",
                "col_group": "Northeast United States",
                "col_group_id": 11,
                "group_col_id": "1.00",
                "lat": "43.91300",
                "lng": "-74.30000",
                "col_area": "18419.4",
                "project_id": 1,
                "col_type": "column",
                "refs": [
                    1
                ]
            },
            {
                "col_id": 317,
                "col_name": "Northern Kuskokwim Mountains",
                "col_group": "Southern Alaska",
                "col_group_id": 16,
                "group_col_id": "2.00",
                "lat": "64.91400",
                "lng": "-153.32600",
                "col_area": "46643.3",
                "project_id": 1,
                "col_type": "column",
                "refs": [
                    1
                ]
            },
            {
                "col_id": 324,
                "col_name": "Boulder Mountains Wood River and Central Pioneer Mountains, Central Idaho",
                "col_group": "Northern Rockies",
                "col_group_id": 13,
                "group_col_id": "1.00",
                "lat": "44.15000",
                "lng": "-114.35300",
                "col_area": "26877.2",
                "project_id": 1,
                "col_type": "column",
                "refs": [
                    1
                ]
            },
            {
                "col_id": 325,
                "col_name": "White Knob Mountains, Lost River and Lemhi Range, Central Idaho",
                "col_group": "Northern Rockies",
                "col_group_id": 13,
                "group_col_id": "2.00",
                "lat": "44.37500",
                "lng": "-113.48000",
                "col_area": "25030.0",
                "project_id": 1,
                "col_type": "column",
                "refs": [
                    1
                ]
            },
            {
                "col_id": 326,
                "col_name": "Pend Oreille Lake Boundary County, Idaho Pandandle",
                "col_group": "Northern Rockies",
                "col_group_id": 13,
                "group_col_id": "3.00",
                "lat": "48.60800",
                "lng": "-116.54100",
                "col_area": "16978.6",
                "project_id": 1,
                "col_type": "column",
                "refs": [
                    1
                ]
            },
            {
                "col_id": 327,
                "col_name": "St. Joe - St. Maries River, Idaho Pandandle",
                "col_group": "Northern Rockies",
                "col_group_id": 13,
                "group_col_id": "4.00",
                "lat": "47.34900",
                "lng": "-116.35000",
                "col_area": "22760.9",
                "project_id": 1,
                "col_type": "column",
                "refs": [
                    1
                ]
            },
            {
                "col_id": 328,
                "col_name": "Libby - Thompson Falls Area, Northwestern Montana",
                "col_group": "Northern Rockies",
                "col_group_id": 13,
                "group_col_id": "5.00",
                "lat": "47.93100",
                "lng": "-115.39200",
                "col_area": "25221.8",
                "project_id": 1,
                "col_type": "column",
                "refs": [
                    1
                ]
            },
            {
                "col_id": 329,
                "col_name": "Glacier National Park Area, Northwestern Montana",
                "col_group": "Northern Rockies",
                "col_group_id": 13,
                "group_col_id": "6.00",
                "lat": "48.54400",
                "lng": "-113.83400",
                "col_area": "13493.5",
                "project_id": 1,
                "col_type": "column",
                "refs": [
                    1
                ]
            },
            {
                "col_id": 330,
                "col_name": "Southern Disturbed Belt, Northwestern Montana",
                "col_group": "Northern Rockies",
                "col_group_id": 13,
                "group_col_id": "7.00",
                "lat": "47.31600",
                "lng": "-112.72800",
                "col_area": "18357.9",
                "project_id": 1,
                "col_type": "column",
                "refs": [
                    1
                ]
            },
            {
                "col_id": 331,
                "col_name": "Missoula (pe, Te, Q Only), Drummond - Helena Area, Central Western Montana",
                "col_group": "Northern Rockies",
                "col_group_id": 13,
                "group_col_id": "8.00",
                "lat": "46.43500",
                "lng": "-112.89900",
                "col_area": "27302.2",
                "project_id": 1,
                "col_type": "column",
                "refs": [
                    1
                ]
            },
            {
                "col_id": 332,
                "col_name": "Butte - Bozeman and South, Southwestern Montana",
                "col_group": "Northern Rockies",
                "col_group_id": 13,
                "group_col_id": "9.00",
                "lat": "45.43500",
                "lng": "-112.11800",
                "col_area": "29450.6",
                "project_id": 1,
                "col_type": "column",
                "refs": [
                    1
                ]
            },
            {
                "col_id": 333,
                "col_name": "West Flank Sweetgrass Arch and Disturbed Belt, Northwest Montana",
                "col_group": "Northern Rockies",
                "col_group_id": 13,
                "group_col_id": "10.00",
                "lat": "48.18100",
                "lng": "-112.76200",
                "col_area": "18458.6",
                "project_id": 1,
                "col_type": "column",
                "refs": [
                    1
                ]
            },
            {
                "col_id": 334,
                "col_name": "East Flank Sweetgrass Arch and Disturbed Belt, Northwest Montana",
                "col_group": "Northern Rockies",
                "col_group_id": 13,
                "group_col_id": "11.00",
                "lat": "48.43200",
                "lng": "-110.88800",
                "col_area": "27289.6",
                "project_id": 1,
                "col_type": "column",
                "refs": [
                    1
                ]
            },
            {
                "col_id": 335,
                "col_name": "Central Montana Uplift",
                "col_group": "Northern Rockies",
                "col_group_id": 13,
                "group_col_id": "12.00",
                "lat": "46.51600",
                "lng": "-109.55300",
                "col_area": "40610.8",
                "project_id": 1,
                "col_type": "column",
                "refs": [
                    1
                ]
            },
            {
                "col_id": 336,
                "col_name": "Blaine-valley Northwest Basin",
                "col_group": "Northern Rockies",
                "col_group_id": 13,
                "group_col_id": "13.00",
                "lat": "48.37500",
                "lng": "-108.61600",
                "col_area": "28264.7",
                "project_id": 1,
                "col_type": "column",
                "refs": [
                    1
                ]
            },
            {
                "col_id": 337,
                "col_name": "Garfield County North Basin",
                "col_group": "Northern Rockies",
                "col_group_id": 13,
                "group_col_id": "14.00",
                "lat": "47.26600",
                "lng": "-106.96100",
                "col_area": "43154.7",
                "project_id": 1,
                "col_type": "column",
                "refs": [
                    1
                ]
            },
            {
                "col_id": 338,
                "col_name": "Roosevelt County West Basin",
                "col_group": "Northern Rockies",
                "col_group_id": 13,
                "group_col_id": "15.00",
                "lat": "48.58300",
                "lng": "-104.93300",
                "col_area": "22908.0",
                "project_id": 1,
                "col_type": "column",
                "refs": [
                    1
                ]
            },
            {
                "col_id": 339,
                "col_name": "Cedar Creek Anticline Southwest Basin",
                "col_group": "Northern Rockies",
                "col_group_id": 13,
                "group_col_id": "16.00",
                "lat": "46.20900",
                "lng": "-105.36500",
                "col_area": "40685.4",
                "project_id": 1,
                "col_type": "column",
                "refs": [
                    1
                ]
            },
            {
                "col_id": 340,
                "col_name": "Billings County Central Basin",
                "col_group": "Northern Rockies",
                "col_group_id": 13,
                "group_col_id": "17.00",
                "lat": "47.27900",
                "lng": "-103.42100",
                "col_area": "21013.7",
                "project_id": 1,
                "col_type": "column",
                "refs": [
                    1
                ]
            },
            {
                "col_id": 341,
                "col_name": "Williams County Nesson Anticline",
                "col_group": "Northern Rockies",
                "col_group_id": 13,
                "group_col_id": "18.00",
                "lat": "48.38300",
                "lng": "-102.95000",
                "col_area": "39055.2",
                "project_id": 1,
                "col_type": "column",
                "refs": [
                    1
                ]
            },
            {
                "col_id": 342,
                "col_name": "Burleigh County East Basin",
                "col_group": "Northern Rockies",
                "col_group_id": 13,
                "group_col_id": "19.00",
                "lat": "47.24600",
                "lng": "-100.57500",
                "col_area": "36781.9",
                "project_id": 1,
                "col_type": "column",
                "refs": [
                    1
                ]
            },
            {
                "col_id": 343,
                "col_name": "Bottineau County Northeast Basin",
                "col_group": "Northern Rockies",
                "col_group_id": 13,
                "group_col_id": "20.00",
                "lat": "48.84900",
                "lng": "-100.80000",
                "col_area": "22995.6",
                "project_id": 1,
                "col_type": "column",
                "refs": [
                    1
                ]
            },
            {
                "col_id": 344,
                "col_name": "Cavalier County Northeast Edge",
                "col_group": "Northern Rockies",
                "col_group_id": 13,
                "group_col_id": "21.00",
                "lat": "48.56600",
                "lng": "-98.00100",
                "col_area": "30736.2",
                "project_id": 1,
                "col_type": "column",
                "refs": [
                    1
                ]
            },
            {
                "col_id": 345,
                "col_name": "Dickey County Southeast Edge",
                "col_group": "Northern Rockies",
                "col_group_id": 13,
                "group_col_id": "22.00",
                "lat": "46.74100",
                "lng": "-98.05600",
                "col_area": "37620.6",
                "project_id": 1,
                "col_type": "column",
                "refs": [
                    1
                ]
            },
            {
                "col_id": 346,
                "col_name": "Adams and Harding Counties, Southwest Basin",
                "col_group": "Northern Rockies",
                "col_group_id": 13,
                "group_col_id": "23.00",
                "lat": "46.26600",
                "lng": "-102.95000",
                "col_area": "26650.5",
                "project_id": 1,
                "col_type": "column",
                "refs": [
                    1
                ]
            },
            {
                "col_id": 347,
                "col_name": "Pennington County Northern Black Hills",
                "col_group": "Northern Rockies",
                "col_group_id": 13,
                "group_col_id": "24.00",
                "lat": "44.95000",
                "lng": "-102.87800",
                "col_area": "27250.6",
                "project_id": 1,
                "col_type": "column",
                "refs": [
                    1
                ]
            },
            {
                "col_id": 348,
                "col_name": "Dewey County East Basin (south)",
                "col_group": "Northern Rockies",
                "col_group_id": 13,
                "group_col_id": "25.00",
                "lat": "45.40000",
                "lng": "-100.34000",
                "col_area": "42115.6",
                "project_id": 1,
                "col_type": "column",
                "refs": [
                    1
                ]
            },
            {
                "col_id": 349,
                "col_name": "Talladega Slate Belt, Alabama",
                "col_group": "Piedmont-Blue Ridge",
                "col_group_id": 15,
                "group_col_id": "1.00",
                "lat": "33.23300",
                "lng": "-86.04100",
                "col_area": "9362.8",
                "project_id": 1,
                "col_type": "column",
                "refs": [
                    1
                ]
            },
            {
                "col_id": 351,
                "col_name": "Georgia Blue Ridge",
                "col_group": "Piedmont-Blue Ridge",
                "col_group_id": 15,
                "group_col_id": "3.00",
                "lat": "34.77100",
                "lng": "-84.39100",
                "col_area": "11136.0",
                "project_id": 1,
                "col_type": "column",
                "refs": [
                    1
                ]
            },
            {
                "col_id": 353,
                "col_name": "Great Smoky Mountains, North of and Below Greenbriar Fault",
                "col_group": "Piedmont-Blue Ridge",
                "col_group_id": 15,
                "group_col_id": "5.00",
                "lat": "35.73500",
                "lng": "-83.11800",
                "col_area": "8196.2",
                "project_id": 1,
                "col_type": "column",
                "refs": [
                    1
                ]
            },
            {
                "col_id": 354,
                "col_name": "Grandfather Mountain Window, North Carolina",
                "col_group": "Piedmont-Blue Ridge",
                "col_group_id": 15,
                "group_col_id": "6.00",
                "lat": "36.16600",
                "lng": "-81.18300",
                "col_area": "7846.0",
                "project_id": 1,
                "col_type": "column",
                "refs": [
                    1
                ]
            },
            {
                "col_id": 356,
                "col_name": "Blue Ridge Anticlinorium, Virginia-maryland",
                "col_group": "Piedmont-Blue Ridge",
                "col_group_id": 15,
                "group_col_id": "8.00",
                "lat": "38.91100",
                "lng": "-77.86600",
                "col_area": "2894.8",
                "project_id": 1,
                "col_type": "column",
                "refs": [
                    1
                ]
            },