{
    "success": {
        "v": 2,
        "license": "CC-BY 4.0",
        "data": [
            {
                "col_id": 2,
                "col_name": "Madison Co, Alabama",
                "col_group": "Southern Appalachians",
                "col_group_id": 17,
                "group_col_id": "1.00",
                "lat": "34.85300",
                "lng": "-86.56200",
                "col_area": "6345.4",
                "project_id": 1,
                "col_type": "column",
                "refs": [
                    1
                ]
            },
            {
                "col_id": 4,
                "col_name": "Blount County, Alabama",
                "col_group": "Southern Appalachians",
                "col_group_id": 17,
                "group_col_id": "3.00",
                "lat": "33.99800",
                "lng": "-86.55000",
                "col_area": "2726.5",
                "project_id": 1,
                "col_type": "column",
                "refs": [
                    1
                ]
            },
            {
                "col_id": 5,
                "col_name": "Dekalb & Western Etowah Counties, Alabama",
                "col_group": "Southern Appalachians",
                "col_group_id": 17,
                "group_col_id": "4.00",
                "lat": "34.35400",
                "lng": "-86.07900",
                "col_area": "3339.3",
                "project_id": 1,
                "col_type": "column",
                "refs": [
                    1
                ]
            },
            {
                "col_id": 6,
                "col_name": "Western Valley & Ridge, Northern Segment, Alabama",
                "col_group": "Southern Appalachians",
                "col_group_id": 17,
                "group_col_id": "5.00",
                "lat": "34.20900",
                "lng": "-85.59900",
                "col_area": "3863.2",
                "project_id": 1,
                "col_type": "column",
                "refs": [
                    1
                ]
            },
            {
                "col_id": 7,
                "col_name": "Eastern Valley and Ridge, Northern Segment, Alabama",
                "col_group": "Southern Appalachians",
                "col_group_id": 17,
                "group_col_id": "6.00",
                "lat": "33.71700",
                "lng": "-86.15600",
                "col_area": "3708.0",
                "project_id": 1,
                "col_type": "column",
                "refs": [
                    1
                ]
            },
            {
                "col_id": 8,
                "col_name": "Western Valley & Ridge, Southern Segment, Alabama",
                "col_group": "Southern Appalachians",
                "col_group_id": 17,
                "group_col_id": "7.00",
                "lat": "33.66200",
                "lng": "-86.78600",
                "col_area": "4713.7",
                "project_id": 1,
                "col_type": "column",
                "refs": [
                    1
                ]
            },
            {
                "col_id": 9,
                "col_name": "Eastern Valley & Ridge, Southern Segment, Alabama",
                "col_group": "Southern Appalachians",
                "col_group_id": 17,
                "group_col_id": "8.00",
                "lat": "33.16500",
                "lng": "-87.30400",
                "col_area": "17966.6",
                "project_id": 1,
                "col_type": "column",
                "refs": [
                    1
                ]
            },
            {
                "col_id": 14,
                "col_name": "Northern Unaka Mountains & Adjacent Valley & Ridge, Tennessee",
                "col_group": "Southern Appalachians",
                "col_group_id": 17,
                "group_col_id": "14.00",
                "lat": "36.30800",
                "lng": "-82.48300",
                "col_area": "6516.7",
                "project_id": 1,
                "col_type": "column",
                "refs": [
                    1
                ]
            },
            {
                "col_id": 15,
                "col_name": "Southern Unaka Mountains and Adjacent Valley & Ridge, Tennessee",
                "col_group": "Southern Appalachians",
                "col_group_id": 17,
                "group_col_id": "15.00",
                "lat": "35.91600",
                "lng": "-83.71600",
                "col_area": "6014.0",
                "project_id": 1,
                "col_type": "column",
                "refs": [
                    1
                ]
            },
            {
                "col_id": 17,
                "col_name": "South-central, Ohio",
                "col_group": "Southern Appalachians",
                "col_group_id": 17,
                "group_col_id": "16.00",
                "lat": "39.39700",
                "lng": "-82.82800",
                "col_area": "13348.1",
                "project_id": 1,
                "col_type": "column",
                "refs": [
                    1
                ]
            },
            {
                "col_id": 18,
                "col_name": "Northeastern Kentucky",
                "col_group": "Southern Appalachians",
                "col_group_id": 17,
                "group_col_id": "17.00",
                "lat": "38.50000",
                "lng": "-83.05000",
                "col_area": "12817.5",
                "project_id": 1,
                "col_type": "column",
                "refs": [
                    1
                ]
            },
            {
                "col_id": 19,
                "col_name": "Eastern Kentucky",
                "col_group": "Southern Appalachians",
                "col_group_id": 17,
                "group_col_id": "18.00",
                "lat": "37.57900",
                "lng": "-83.00100",
                "col_area": "8705.3",
                "project_id": 1,
                "col_type": "column",
                "refs": [
                    1
                ]
            },
            {
                "col_id": 20,
                "col_name": "Southeastern Kentucky: North of Pine Mtn",
                "col_group": "Southern Appalachians",
                "col_group_id": 17,
                "group_col_id": "19.00",
                "lat": "36.98000",
                "lng": "-83.22000",
                "col_area": "4162.6",
                "project_id": 1,
                "col_type": "column",
                "refs": [
                    1
                ]
            },
            {
                "col_id": 21,
                "col_name": "Lee County, Virginia",
                "col_group": "Southern Appalachians",
                "col_group_id": 17,
                "group_col_id": "20.00",
                "lat": "36.73500",
                "lng": "-82.92500",
                "col_area": "2435.6",
                "project_id": 1,
                "col_type": "column",
                "refs": [
                    1
                ]
            },
            {
                "col_id": 23,
                "col_name": "Appalachian Plateau, Virginia",
                "col_group": "Southern Appalachians",
                "col_group_id": 17,
                "group_col_id": "21.00",
                "lat": "37.30000",
                "lng": "-82.11600",
                "col_area": "5536.0",
                "project_id": 1,
                "col_type": "column",
                "refs": [
                    1
                ]
            },
            {
                "col_id": 25,
                "col_name": "Scott and Russell Counties, Virginia",
                "col_group": "Southern Appalachians",
                "col_group_id": 17,
                "group_col_id": "22.00",
                "lat": "36.77800",
                "lng": "-82.35600",
                "col_area": "2889.7",
                "project_id": 1,
                "col_type": "column",
                "refs": [
                    1
                ]
            },
            {
                "col_id": 27,
                "col_name": "Washington & Smyth Counties, Virginia: West of Pulaski Fault",
                "col_group": "Southern Appalachians",
                "col_group_id": 17,
                "group_col_id": "23.00",
                "lat": "36.81700",
                "lng": "-81.94400",
                "col_area": "2773.6",
                "project_id": 1,
                "col_type": "column",
                "refs": [
                    1
                ]
            },
            {
                "col_id": 28,
                "col_name": "Western Anticline Belt (southern half), Virginia",
                "col_group": "Southern Appalachians",
                "col_group_id": 17,
                "group_col_id": "24.00",
                "lat": "37.13300",
                "lng": "-81.46600",
                "col_area": "3176.8",
                "project_id": 1,
                "col_type": "column",
                "refs": [
                    1
                ]
            },
            {
                "col_id": 32,
                "col_name": "Southern Coal Basin, West Virginia",
                "col_group": "Northern Appalachians",
                "col_group_id": 9,
                "group_col_id": "1.00",
                "lat": "38.00000",
                "lng": "-81.61100",
                "col_area": "10739.4",
                "project_id": 1,
                "col_type": "column",
                "refs": [
                    1
                ]
            },
            {
                "col_id": 34,
                "col_name": "Cost G1 Well Georges Bank Basin",
                "col_group": "Atlantic Coastal Plain",
                "col_group_id": 1,
                "group_col_id": "1.00",
                "lat": "40.91600",
                "lng": "-68.30000",
                "col_area": "32244.7",
                "project_id": 1,
                "col_type": "column",
                "refs": [
                    1
                ]
            },
            {
                "col_id": 35,
                "col_name": "Plomosa and Dome Rock Mountains Area",
                "col_group": "Southwest Mid-Continent",
                "col_group_id": 19,
                "group_col_id": "1.00",
                "lat": "33.59100",
                "lng": "-114.06100",
                "col_area": "60048.7",
                "project_id": 1,
                "col_type": "column",
                "refs": [
                    1
                ]
            },
            {
                "col_id": 36,
                "col_name": "Barrow - Drew Point",
                "col_group": "Northern Alaska",
                "col_group_id": 8,
                "group_col_id": "1.00",
                "lat": "70.64400",
                "lng": "-154.58300",
                "col_area": "27287.5",
                "project_id": 1,
                "col_type": "column",
                "refs": [
                    1
                ]
            },
            {
                "col_id": 37,
                "col_name": "Wythe and Pulaski Counties, Virginia: West of Pulaski Fault",
                "col_group": "Southern Appalachians",
                "col_group_id": 17,
                "group_col_id": "25.00",
                "lat": "37.01800",
                "lng": "-81.23100",
                "col_area": "2729.2",
                "project_id": 1,
                "col_type": "column",
                "refs": [
                    1
                ]
            },
            {
                "col_id": 38,
                "col_name": "Montgomery and Roanoke Counties, Virginia: West of Pulaski Fault",
                "col_group": "Southern Appalachians",
                "col_group_id": 17,
                "group_col_id": "26.00",
                "lat": "37.23800",
                "lng": "-80.55500",
                "col_area": "2426.8",
                "project_id": 1,
                "col_type": "column",
                "refs": [
                    1
                ]
            },
            {
                "col_id": 39,
                "col_name": "Basin Center, West Virginia",
                "col_group": "Northern Appalachians",
                "col_group_id": 9,
                "group_col_id": "2.00",
                "lat": "38.44500",
                "lng": "-80.98600",
                "col_area": "8320.5",
                "project_id": 1,
                "col_type": "column",
                "refs": [
                    1
                ]
            },
            {
                "col_id": 40,
                "col_name": "Southeast Valley & Ridge, West Virginia",
                "col_group": "Northern Appalachians",
                "col_group_id": 9,
                "group_col_id": "3.00",
                "lat": "37.74100",
                "lng": "-80.60800",
                "col_area": "5425.7",
                "project_id": 1,
                "col_type": "column",
                "refs": [
                    1
                ]
            },
            {
                "col_id": 41,
                "col_name": "Highland to Craig County, Virginia",
                "col_group": "Northern Appalachians",
                "col_group_id": 9,
                "group_col_id": "4.00",
                "lat": "38.09200",
                "lng": "-79.77200",
                "col_area": "5738.1",
                "project_id": 1,
                "col_type": "column",
                "refs": [
                    1
                ]
            },
            {
                "col_id": 43,
                "col_name": "Rockingham & Augusta Counties, Virginia - West of North Mtn Fault",
                "col_group": "Northern Appalachians",
                "col_group_id": 9,
                "group_col_id": "6.00",
                "lat": "38.43800",
                "lng": "-79.15800",
                "col_area": "3578.2",
                "project_id": 1,
                "col_type": "column",
                "refs": [
                    1
                ]
            },
            {
                "col_id": 46,
                "col_name": "High Plateau, West Virginia",
                "col_group": "Northern Appalachians",
                "col_group_id": 9,
                "group_col_id": "9.00",
                "lat": "39.14100",
                "lng": "-80.07500",
                "col_area": "9995.4",
                "project_id": 1,
                "col_type": "column",
                "refs": [
                    1
                ]
            },
            {
                "col_id": 47,
                "col_name": "Northeast Valley & Ridge, West Virginia",
                "col_group": "Northern Appalachians",
                "col_group_id": 9,
                "group_col_id": "10.00",
                "lat": "39.04000",
                "lng": "-79.15400",
                "col_area": "4248.9",
                "project_id": 1,
                "col_type": "column",
                "refs": [
                    1
                ]
            },
            {
                "col_id": 49,
                "col_name": "Sonoita Area",
                "col_group": "Southwest Mid-Continent",
                "col_group_id": 19,
                "group_col_id": "3.00",
                "lat": "31.62000",
                "lng": "-110.15000",
                "col_area": "33159.3",
                "project_id": 1,
                "col_type": "column",
                "refs": [
                    1
                ]
            },
            {
                "col_id": 50,
                "col_name": "Big Hatchet Mountain Area",
                "col_group": "Southwest Mid-Continent",
                "col_group_id": 19,
                "group_col_id": "4.00",
                "lat": "31.66600",
                "lng": "-108.40000",
                "col_area": "18314.1",
                "project_id": 1,
                "col_type": "column",
                "refs": [
                    1
                ]
            },
            {
                "col_id": 51,
                "col_name": "Verde Valley",
                "col_group": "Southwest Mid-Continent",
                "col_group_id": 19,
                "group_col_id": "5.00",
                "lat": "33.87800",
                "lng": "-110.44000",
                "col_area": "49841.8",
                "project_id": 1,
                "col_type": "column",
                "refs": [
                    1
                ]
            },
            {
                "col_id": 52,
                "col_name": "Lone Mountain Area",
                "col_group": "Southwest Mid-Continent",
                "col_group_id": 19,
                "group_col_id": "6.00",
                "lat": "32.48300",
                "lng": "-108.25800",
                "col_area": "20334.9",
                "project_id": 1,
                "col_type": "column",
                "refs": [
                    1
                ]
            },
            {
                "col_id": 56,
                "col_name": "Northeast Valley & Ridge, Virginia - West of North Mtn Fault",
                "col_group": "Northern Appalachians",
                "col_group_id": 9,
                "group_col_id": "11.00",
                "lat": "39.08300",
                "lng": "-78.50400",
                "col_area": "3062.9",
                "project_id": 1,
                "col_type": "column",
                "refs": [
                    1
                ]
            },
            {
                "col_id": 58,
                "col_name": "Marathon - Big Bend Region",
                "col_group": "Southwest Mid-Continent",
                "col_group_id": 19,
                "group_col_id": "11.00",
                "lat": "29.58500",
                "lng": "-103.36600",
                "col_area": "29165.6",
                "project_id": 1,
                "col_type": "column",
                "refs": [
                    1
                ]
            },
            {
                "col_id": 61,
                "col_name": "Puetecito-landron Mountain Area",
                "col_group": "Southwest Mid-Continent",
                "col_group_id": 19,
                "group_col_id": "14.00",
                "lat": "34.15300",
                "lng": "-107.27500",
                "col_area": "14382.7",
                "project_id": 1,
                "col_type": "column",
                "refs": [
                    1
                ]
            },
            {
                "col_id": 62,
                "col_name": "Carthage-Joyita Hill Area",
                "col_group": "Southwest Mid-Continent",
                "col_group_id": 19,
                "group_col_id": "15.00",
                "lat": "33.80800",
                "lng": "-106.80200",
                "col_area": "11342.6",
                "project_id": 1,
                "col_type": "column",
                "refs": [
                    1
                ]
            },
            {
                "col_id": 64,
                "col_name": "Sacramento Mountains",
                "col_group": "Southwest Mid-Continent",
                "col_group_id": 19,
                "group_col_id": "17.00",
                "lat": "33.05100",
                "lng": "-105.60700",
                "col_area": "22085.9",
                "project_id": 1,
                "col_type": "column",
                "refs": [
                    1
                ]
            },
            {
                "col_id": 76,
                "col_name": "Hugoton Embayment-kansas",
                "col_group": "Southwest Mid-Continent",
                "col_group_id": 19,
                "group_col_id": "29.00",
                "lat": "37.58300",
                "lng": "-101.28300",
                "col_area": "28648.3",
                "project_id": 1,
                "col_type": "column",
                "refs": [
                    1
                ]
            },
            {
                "col_id": 77,
                "col_name": "Las Animas Arch-colorado",
                "col_group": "Southwest Mid-Continent",
                "col_group_id": 19,
                "group_col_id": "30.00",
                "lat": "38.28300",
                "lng": "-102.56600",
                "col_area": "26870.7",
                "project_id": 1,
                "col_type": "column",
                "refs": [
                    1
                ]
            },
            {
                "col_id": 90,
                "col_name": "Appanoose County, Iowa",
                "col_group": "Midcontinent",
                "col_group_id": 7,
                "group_col_id": "13.00",
                "lat": "40.72100",
                "lng": "-92.91300",
                "col_area": "28777.4",
                "project_id": 1,
                "col_type": "column",
                "refs": [
                    1
                ]
            },
            {
                "col_id": 94,
                "col_name": "Colville Delta",
                "col_group": "Northern Alaska",
                "col_group_id": 8,
                "group_col_id": "2.00",
                "lat": "70.26000",
                "lng": "-151.26900",
                "col_area": "17893.2",
                "project_id": 1,
                "col_type": "column",
                "refs": [
                    1
                ]
            },
            {
                "col_id": 95,
                "col_name": "West Sak",
                "col_group": "Northern Alaska",
                "col_group_id": 8,
                "group_col_id": "3.00",
                "lat": "70.34300",
                "lng": "-149.27600",
                "col_area": "9473.3",
                "project_id": 1,
                "col_type": "column",
                "refs": [
                    1
                ]
            },
            {
                "col_id": 97,
                "col_name": "Canning River Delta",
                "col_group": "Northern Alaska",
                "col_group_id": 8,
                "group_col_id": "5.00",
                "lat": "70.01500",
                "lng": "-145.66800",
                "col_area": "23483.4",
                "project_id": 1,
                "col_type": "column",
                "refs": [
                    1
                ]
            },
            {
                "col_id": 111,
                "col_name": "Cost G2 Well Georges Bank Basin",
                "col_group": "Atlantic Coastal Plain",
                "col_group_id": 1,
                "group_col_id": "2.00",
                "lat": "40.83300",
                "lng": "-67.50000",
                "col_area": "17274.5",
                "project_id": 1,
                "col_type": "column",
                "refs": [
                    1
                ]
            },
            {
                "col_id": 114,
                "col_name": "Raritan Bay",
                "col_group": "Atlantic Coastal Plain",
                "col_group_id": 1,
                "group_col_id": "3.00",
                "lat": "40.41900",
                "lng": "-74.21700",
                "col_area": "4579.0",
                "project_id": 1,
                "col_type": "column",
                "refs": [
                    1
                ]
            },
            {
                "col_id": 127,
                "col_name": "Inner Coastal Plain",
                "col_group": "Atlantic Coastal Plain",
                "col_group_id": 1,
                "group_col_id": "32.00",
                "lat": "35.28300",
                "lng": "-77.93300",
                "col_area": "15029.5",
                "project_id": 1,
                "col_type": "column",
                "refs": [
                    1
                ]
            },
            {
                "col_id": 137,
                "col_name": "Greenwood",
                "col_group": "Atlantic Coastal Plain",
                "col_group_id": 1,
                "group_col_id": "13.00",
                "lat": "38.80500",
                "lng": "-75.59100",
                "col_area": "4413.0",
                "project_id": 1,
                "col_type": "column",
                "refs": [
                    1
                ]
            },
            {
                "col_id": 138,
                "col_name": "Atlantic Coast",
                "col_group": "Atlantic Coastal Plain",
                "col_group_id": 1,
                "group_col_id": "14.00",
                "lat": "38.53000",
                "lng": "-75.07600",
                "col_area": "5244.6",
                "project_id": 1,
                "col_type": "column",
                "refs": [
                    1
                ]
            },
            {
                "col_id": 139,
                "col_name": "Offshore Mid-Atlantic",
                "col_group": "Atlantic Coastal Plain",
                "col_group_id": 1,
                "group_col_id": "15.00",
                "lat": "38.49300",
                "lng": "-73.74800",
                "col_area": "8600.5",
                "project_id": 1,
                "col_type": "column",
                "refs": [
                    1
                ]
            },
            {
                "col_id": 150,
                "col_name": "Northeastern Foothills and Phillip Smith Mountains Quadrangle",
                "col_group": "Northern Alaska",
                "col_group_id": 8,
                "group_col_id": "8.00",
                "lat": "68.97300",
                "lng": "-153.51600",
                "col_area": "13834.2",
                "project_id": 1,
                "col_type": "column",
                "refs": [
                    1
                ]
            },
            {
                "col_id": 156,
                "col_name": "Garrett County, Maryland",
                "col_group": "Northern Appalachians",
                "col_group_id": 9,
                "group_col_id": "12.00",
                "lat": "39.56100",
                "lng": "-79.25000",
                "col_area": "5804.1",
                "project_id": 1,
                "col_type": "column",
                "refs": [
                    1
                ]
            },
            {
                "col_id": 169,
                "col_name": "Black Warrior Basin Prentiss County, Mississippi",
                "col_group": "Texas-Oklahoma Tectonic Region",
                "col_group_id": 20,
                "group_col_id": "17.00",
                "lat": "34.63300",
                "lng": "-88.54100",
                "col_area": "19764.8",
                "project_id": 1,
                "col_type": "column",
                "refs": [
                    1
                ]
            },
            {
                "col_id": 171,
                "col_name": "Black Warrior Basin Cullman County, Alabama",
                "col_group": "Texas-Oklahoma Tectonic Region",
                "col_group_id": 20,
                "group_col_id": "19.00",
                "lat": "34.23000",
                "lng": "-87.02000",
                "col_area": "7606.7",
                "project_id": 1,
                "col_type": "column",
                "refs": [
                    1
                ]
            },
            {
                "col_id": 172,
                "col_name": "Jackson County (formerly Washabaugh County), South Dakota",
                "col_group": "Northern Mid-Continent",
                "col_group_id": 12,
                "group_col_id": "1.00",
                "lat": "43.51600",
                "lng": "-102.75800",
                "col_area": "23881.4",
                "project_id": 1,
                "col_type": "column",
                "refs": [
                    1
                ]
            },
            {
                "col_id": 184,
                "col_name": "Pine - Carlton Counties, Minnesota",
                "col_group": "Northern Mid-Continent",
                "col_group_id": 12,
                "group_col_id": "13.00",
                "lat": "46.41500",
                "lng": "-92.67800",
                "col_area": "27698.4",
                "project_id": 1,
                "col_type": "column",
                "refs": [
                    1
                ]
            },
            {
                "col_id": 198,
                "col_name": "Cuyama Valley",
                "col_group": "Southern California",
                "col_group_id": 18,
                "group_col_id": "1.00",
                "lat": "35.00500",
                "lng": "-119.85300",
                "col_area": "2735.4",
                "project_id": 1,
                "col_type": "column",
                "refs": [
                    1
                ]
            },
            {
                "col_id": 199,
                "col_name": "Santa Maria",
                "col_group": "Southern California",
                "col_group_id": 18,
                "group_col_id": "2.00",
                "lat": "34.91600",
                "lng": "-120.48300",
                "col_area": "4602.6",
                "project_id": 1,
                "col_type": "column",
                "refs": [
                    1
                ]
            },
            {
                "col_id": 201,
                "col_name": "Fillmore",
                "col_group": "Southern California",
                "col_group_id": 18,
                "group_col_id": "4.00",
                "lat": "34.41600",
                "lng": "-118.95800",
                "col_area": "1941.8",
                "project_id": 1,
                "col_type": "column",
                "refs": [
                    1
                ]
            },
            {
                "col_id": 202,
                "col_name": "Oxnard",
                "col_group": "Southern California",
                "col_group_id": 18,
                "group_col_id": "5.00",
                "lat": "34.19900",
                "lng": "-119.18600",
                "col_area": "8364.0",
                "project_id": 1,
                "col_type": "column",
                "refs": [
                    1
                ]
            },
            {
                "col_id": 203,
                "col_name": "Ridge Basin",
                "col_group": "Southern California",
                "col_group_id": 18,
                "group_col_id": "6.00",
                "lat": "34.66800",
                "lng": "-118.65600",
                "col_area": "1420.3",
                "project_id": 1,
                "col_type": "column",
                "refs": [
                    1
                ]
            },
            {
                "col_id": 204,
                "col_name": "Soledad Basin",
                "col_group": "Southern California",
                "col_group_id": 18,
                "group_col_id": "7.00",
                "lat": "34.45300",
                "lng": "-118.45300",
                "col_area": "3128.3",
                "project_id": 1,
                "col_type": "column",
                "refs": [
                    1
                ]
            },
            {
                "col_id": 205,
                "col_name": "San Fernando - Santa Susana Mountains",
                "col_group": "Southern California",
                "col_group_id": 18,
                "group_col_id": "8.00",
                "lat": "34.30300",
                "lng": "-118.52500",
                "col_area": "1433.8",
                "project_id": 1,
                "col_type": "column",
                "refs": [
                    1
                ]
            },
            {
                "col_id": 206,
                "col_name": "Central Santa Monica Mountains",
                "col_group": "Southern California",
                "col_group_id": 18,
                "group_col_id": "9.00",
                "lat": "34.08200",
                "lng": "-118.71400",
                "col_area": "3173.6",
                "project_id": 1,
                "col_type": "column",
                "refs": [
                    1
                ]
            },
            {
                "col_id": 207,
                "col_name": "Palos Verdes Hills",
                "col_group": "Southern California",
                "col_group_id": 18,
                "group_col_id": "10.00",
                "lat": "33.75500",
                "lng": "-118.33200",
                "col_area": "7070.8",
                "project_id": 1,
                "col_type": "column",
                "refs": [
                    1
                ]
            },
            {
                "col_id": 209,
                "col_name": "Southern Santa Ana Mountains",
                "col_group": "Southern California",
                "col_group_id": 18,
                "group_col_id": "12.00",
                "lat": "33.55600",
                "lng": "-117.52400",
                "col_area": "3263.9",
                "project_id": 1,
                "col_type": "column",
                "refs": [
                    1
                ]
            },
            {
                "col_id": 213,
                "col_name": "Savioyuk Syncline",
                "col_group": "Northern Alaska",
                "col_group_id": 8,
                "group_col_id": "17.00",
                "lat": "67.48200",
                "lng": "-151.72300",
                "col_area": "13119.1",
                "project_id": 1,
                "col_type": "column",
                "refs": [
                    1
                ]
            },
            {
                "col_id": 214,
                "col_name": "Northern San Diego Embayment",
                "col_group": "Southern California",
                "col_group_id": 18,
                "group_col_id": "13.00",
                "lat": "33.16600",
                "lng": "-117.28300",
                "col_area": "3893.1",
                "project_id": 1,
                "col_type": "column",
                "refs": [
                    1
                ]
            },
            {
                "col_id": 220,
                "col_name": "Elsinor/temecula",
                "col_group": "Southern California",
                "col_group_id": 18,
                "group_col_id": "19.00",
                "lat": "33.54900",
                "lng": "-117.08700",
                "col_area": "2715.5",
                "project_id": 1,
                "col_type": "column",
                "refs": [
                    1
                ]
            },
            {
                "col_id": 222,
                "col_name": "Mecca Hills/Orocopia Mountains",
                "col_group": "Southern California",
                "col_group_id": 18,
                "group_col_id": "21.00",
                "lat": "33.57000",
                "lng": "-115.85000",
                "col_area": "6195.7",
                "project_id": 1,
                "col_type": "column",
                "refs": [
                    1
                ]
            },
            {
                "col_id": 224,
                "col_name": "Cajon Pass",
                "col_group": "Southern California",
                "col_group_id": 18,
                "group_col_id": "23.00",
                "lat": "34.33700",
                "lng": "-117.47200",
                "col_area": "3047.7",
                "project_id": 1,
                "col_type": "column",
                "refs": [
                    1
                ]
            },
            {
                "col_id": 228,
                "col_name": "Barstow",
                "col_group": "Southern California",
                "col_group_id": 18,
                "group_col_id": "27.00",
                "lat": "34.89000",
                "lng": "-116.92000",
                "col_area": "5942.8",
                "project_id": 1,
                "col_type": "column",
                "refs": [
                    1
                ]
            },
            {
                "col_id": 229,
                "col_name": "Hector",
                "col_group": "Southern California",
                "col_group_id": 18,
                "group_col_id": "28.00",
                "lat": "34.80000",
                "lng": "-116.38900",
                "col_area": "6949.9",
                "project_id": 1,
                "col_type": "column",
                "refs": [
                    1
                ]
            },
            {
                "col_id": 232,
                "col_name": "Centerville Beach",
                "col_group": "Northern California",
                "col_group_id": 10,
                "group_col_id": "1.00",
                "lat": "40.55700",
                "lng": "-124.34900",
                "col_area": "5425.8",
                "project_id": 1,
                "col_type": "column",
                "refs": [
                    1
                ]
            },
            {
                "col_id": 233,
                "col_name": "Scotia Bluffs",
                "col_group": "Northern California",
                "col_group_id": 10,
                "group_col_id": "2.00",
                "lat": "40.44600",
                "lng": "-124.09300",
                "col_area": "6428.5",
                "project_id": 1,
                "col_type": "column",
                "refs": [
                    1
                ]
            },
            {
                "col_id": 234,
                "col_name": "East of Mccloud River",
                "col_group": "Northern California",
                "col_group_id": 10,
                "group_col_id": "3.00",
                "lat": "41.24500",
                "lng": "-121.94300",
                "col_area": "16057.8",
                "project_id": 1,
                "col_type": "column",
                "refs": [
                    1
                ]
            },
            {
                "col_id": 235,
                "col_name": "West of Mccloud River",
                "col_group": "Northern California",
                "col_group_id": 10,
                "group_col_id": "4.00",
                "lat": "41.10800",
                "lng": "-122.55400",
                "col_area": "3938.4",
                "project_id": 1,
                "col_type": "column",
                "refs": [
                    1
                ]
            },
            {
                "col_id": 243,
                "col_name": "Western Contra Costa County",
                "col_group": "Northern California",
                "col_group_id": 10,
                "group_col_id": "19.00",
                "lat": "37.97600",
                "lng": "-122.31700",
                "col_area": "1540.4",
                "project_id": 1,
                "col_type": "column",
                "refs": [
                    1
                ]
            },
            {
                "col_id": 249,
                "col_name": "Taylorsville",
                "col_group": "Northern California",
                "col_group_id": 10,
                "group_col_id": "16.00",
                "lat": "40.07800",
                "lng": "-120.90400",
                "col_area": "11459.2",
                "project_id": 1,
                "col_type": "column",
                "refs": [
                    1
                ]
            },
            {
                "col_id": 250,
                "col_name": "Taylorsville East",
                "col_group": "Northern California",
                "col_group_id": 10,
                "group_col_id": "17.00",
                "lat": "40.06500",
                "lng": "-120.46700",
                "col_area": "14608.9",
                "project_id": 1,
                "col_type": "column",
                "refs": [
                    1
                ]
            },
            {
                "col_id": 251,
                "col_name": "Mount Diablo North Fork",
                "col_group": "Northern California",
                "col_group_id": 10,
                "group_col_id": "20.00",
                "lat": "37.93900",
                "lng": "-121.93100",
                "col_area": "469.9",
                "project_id": 1,
                "col_type": "column",
                "refs": [
                    1
                ]
            },
            {
                "col_id": 252,
                "col_name": "Mount Diablo South Flank",
                "col_group": "Northern California",
                "col_group_id": 10,
                "group_col_id": "21.00",
                "lat": "37.78900",
                "lng": "-121.84800",
                "col_area": "1324.2",
                "project_id": 1,
                "col_type": "column",
                "refs": [
                    1
                ]
            },
            {
                "col_id": 253,
                "col_name": "Suisun Bay",
                "col_group": "Northern California",
                "col_group_id": 10,
                "group_col_id": "22.00",
                "lat": "38.09100",
                "lng": "-122.07900",
                "col_area": "1078.2",
                "project_id": 1,
                "col_type": "column",
                "refs": [
                    1
                ]
            },
            {
                "col_id": 254,
                "col_name": "Montezuma",
                "col_group": "Northern California",
                "col_group_id": 10,
                "group_col_id": "23.00",
                "lat": "38.11000",
                "lng": "-121.81000",
                "col_area": "1345.0",
                "project_id": 1,
                "col_type": "column",
                "refs": [
                    1
                ]
            },
            {
                "col_id": 255,
                "col_name": "Tracy",
                "col_group": "Northern California",
                "col_group_id": 10,
                "group_col_id": "24.00",
                "lat": "37.70600",
                "lng": "-121.39000",
                "col_area": "3748.5",
                "project_id": 1,
                "col_type": "column",
                "refs": [
                    1
                ]
            },
            {
                "col_id": 256,
                "col_name": "San Joaquin East",
                "col_group": "Northern California",
                "col_group_id": 10,
                "group_col_id": "25.00",
                "lat": "37.98800",
                "lng": "-120.98500",
                "col_area": "3097.1",
                "project_id": 1,
                "col_type": "column",
                "refs": [
                    1
                ]
            },
            {
                "col_id": 257,
                "col_name": "Clarksburg",
                "col_group": "Northern California",
                "col_group_id": 10,
                "group_col_id": "26.00",
                "lat": "38.40800",
                "lng": "-121.49800",
                "col_area": "3801.5",
                "project_id": 1,
                "col_type": "column",
                "refs": [
                    1
                ]
            },
            {
                "col_id": 258,
                "col_name": "Ord Bend",
                "col_group": "Northern California",
                "col_group_id": 10,
                "group_col_id": "27.00",
                "lat": "39.59100",
                "lng": "-122.28300",
                "col_area": "12126.4",
                "project_id": 1,
                "col_type": "column",
                "refs": [
                    1
                ]
            },
            {
                "col_id": 259,
                "col_name": "Northwest",
                "col_group": "Northern California",
                "col_group_id": 10,
                "group_col_id": "28.00",
                "lat": "40.26000",
                "lng": "-122.48000",
                "col_area": "7731.6",
                "project_id": 1,
                "col_type": "column",
                "refs": [
                    1
                ]
            },
            {
                "col_id": 260,
                "col_name": "Putah Creek",
                "col_group": "Northern California",
                "col_group_id": 10,
                "group_col_id": "29.00",
                "lat": "38.53200",
                "lng": "-121.96400",
                "col_area": "5309.7",
                "project_id": 1,
                "col_type": "column",
                "refs": [
                    1
                ]
            },
            {
                "col_id": 265,
                "col_name": "Eugene Area",
                "col_group": "Northwest",
                "col_group_id": 14,
                "group_col_id": "5.00",
                "lat": "44.08100",
                "lng": "-123.08300",
                "col_area": "10943.2",
                "project_id": 1,
                "col_type": "column",
                "refs": [
                    1
                ]
            },
            {
                "col_id": 266,
                "col_name": "Central Coastal Range",
                "col_group": "Northwest",
                "col_group_id": 14,
                "group_col_id": "6.00",
                "lat": "44.61100",
                "lng": "-123.89600",
                "col_area": "7756.4",
                "project_id": 1,
                "col_type": "column",
                "refs": [
                    1
                ]
            },
            {
                "col_id": 267,
                "col_name": "Mcminnville Sheridan Area",
                "col_group": "Northwest",
                "col_group_id": 14,
                "group_col_id": "7.00",
                "lat": "45.09400",
                "lng": "-123.25600",
                "col_area": "6480.7",
                "project_id": 1,
                "col_type": "column",
                "refs": [
                    1
                ]
            },
            {
                "col_id": 268,
                "col_name": "Oregon City, Molalla Area",
                "col_group": "Northwest",
                "col_group_id": 14,
                "group_col_id": "8.00",
                "lat": "45.24300",
                "lng": "-122.57900",
                "col_area": "14386.1",
                "project_id": 1,
                "col_type": "column",
                "refs": [
                    1
                ]
            },
            {
                "col_id": 269,
                "col_name": "Astoria Area",
                "col_group": "Northwest",
                "col_group_id": 14,
                "group_col_id": "9.00",
                "lat": "46.09400",
                "lng": "-123.86800",
                "col_area": "6919.9",
                "project_id": 1,
                "col_type": "column",
                "refs": [
                    1
                ]
            },
            {
                "col_id": 270,
                "col_name": "Columbia County Area",
                "col_group": "Northwest",
                "col_group_id": 14,
                "group_col_id": "10.00",
                "lat": "45.93300",
                "lng": "-123.16200",
                "col_area": "5686.5",
                "project_id": 1,
                "col_type": "column",
                "refs": [
                    1
                ]
            },
            {
                "col_id": 279,
                "col_name": "Northwest Olympic Peninsula",
                "col_group": "Northwest",
                "col_group_id": 14,
                "group_col_id": "15.00",
                "lat": "48.15800",
                "lng": "-124.49500",
                "col_area": "5364.4",
                "project_id": 1,
                "col_type": "column",
                "refs": [
                    1
                ]
            },
            {
                "col_id": 281,
                "col_name": "Bremerton Area",
                "col_group": "Northwest",
                "col_group_id": 14,
                "group_col_id": "17.00",
                "lat": "47.56500",
                "lng": "-122.72400",
                "col_area": "6699.7",
                "project_id": 1,
                "col_type": "column",
                "refs": [
                    1
                ]
            },
            {
                "col_id": 287,
                "col_name": "Bend - Madras - Ochoco Mountains, Oregon",
                "col_group": "Northwest",
                "col_group_id": 14,
                "group_col_id": "23.00",
                "lat": "44.33400",
                "lng": "-120.94200",
                "col_area": "22632.7",
                "project_id": 1,
                "col_type": "column",
                "refs": [
                    1
                ]
            },
            {
                "col_id": 290,
                "col_name": "John Day - Suplee, Central Oregon",
                "col_group": "Northwest",
                "col_group_id": 14,
                "group_col_id": "25.00",
                "lat": "44.25200",
                "lng": "-119.24800",
                "col_area": "27239.7",
                "project_id": 1,
                "col_type": "column",
                "refs": [
                    1
                ]
            },
            {
                "col_id": 292,
                "col_name": "Pullman, Wa. to Snake River Gorge, Wa. Or Id.",
                "col_group": "Northwest",
                "col_group_id": 14,
                "group_col_id": "27.00",
                "lat": "46.55600",
                "lng": "-117.19900",
                "col_area": "34511.4",
                "project_id": 1,
                "col_type": "column",
                "refs": [
                    1
                ]
            },
            {
                "col_id": 296,
                "col_name": "Allegany County, Maryland",
                "col_group": "Northern Appalachians",
                "col_group_id": 9,
                "group_col_id": "13.00",
                "lat": "39.67600",
                "lng": "-78.67800",
                "col_area": "5979.3",
                "project_id": 1,
                "col_type": "column",
                "refs": [
                    1
                ]
            },
            {
                "col_id": 297,
                "col_name": "Washington County, Maryland",
                "col_group": "Northern Appalachians",
                "col_group_id": 9,
                "group_col_id": "14.00",
                "lat": "39.69600",
                "lng": "-77.99500",
                "col_area": "4416.3",
                "project_id": 1,
                "col_type": "column",
                "refs": [
                    1
                ]
            },
            {
                "col_id": 300,
                "col_name": "Southwestern Pennsylvania",
                "col_group": "Northern Appalachians",
                "col_group_id": 9,
                "group_col_id": "17.00",
                "lat": "40.52800",
                "lng": "-79.56300",
                "col_area": "17251.1",
                "project_id": 1,
                "col_type": "column",
                "refs": [
                    1
                ]
            },
            {
                "col_id": 301,
                "col_name": "South-central Pennsylvania",
                "col_group": "Northern Appalachians",
                "col_group_id": 9,
                "group_col_id": "18.00",
                "lat": "40.29100",
                "lng": "-77.89000",
                "col_area": "12044.4",
                "project_id": 1,
                "col_type": "column",
                "refs": [
                    1
                ]
            },
            {
                "col_id": 302,
                "col_name": "Southeastern Pennsylvania",
                "col_group": "Northern Appalachians",
                "col_group_id": 9,
                "group_col_id": "19.00",
                "lat": "40.21100",
                "lng": "-76.97000",
                "col_area": "9633.2",
                "project_id": 1,
                "col_type": "column",
                "refs": [
                    1
                ]
            },
            {
                "col_id": 307,
                "col_name": "Eastern Pennsylvania",
                "col_group": "Northern Appalachians",
                "col_group_id": 9,
                "group_col_id": "24.00",
                "lat": "40.96100",
                "lng": "-75.81000",
                "col_area": "11732.2",
                "project_id": 1,
                "col_type": "column",
                "refs": [
                    1
                ]
            },
            {
                "col_id": 309,
                "col_name": "Green Pond Mountain Region, New Jersey",
                "col_group": "Northern Appalachians",
                "col_group_id": 9,
                "group_col_id": "26.00",
                "lat": "40.99300",
                "lng": "-74.53700",
                "col_area": "4577.9",
                "project_id": 1,
                "col_type": "column",
                "refs": [
                    1
                ]
            },
            {
                "col_id": 310,
                "col_name": "Western New York",
                "col_group": "Northern Appalachians",
                "col_group_id": 9,
                "group_col_id": "27.00",
                "lat": "42.58300",
                "lng": "-78.62300",
                "col_area": "18733.5",
                "project_id": 1,
                "col_type": "column",
                "refs": [
                    1
                ]
            },
            {
                "col_id": 311,
                "col_name": "West-central New York",
                "col_group": "Northern Appalachians",
                "col_group_id": 9,
                "group_col_id": "28.00",
                "lat": "42.96000",
                "lng": "-77.03300",
                "col_area": "26811.3",
                "project_id": 1,
                "col_type": "column",
                "refs": [
                    1
                ]
            },
            {
                "col_id": 312,
                "col_name": "East-central New York",
                "col_group": "Northern Appalachians",
                "col_group_id": 9,
                "group_col_id": "29.00",
                "lat": "43.11600",
                "lng": "-75.77800",
                "col_area": "24062.0",
                "project_id": 1,
                "col_type": "column",
                "refs": [
                    1
                ]
            },
            {
                "col_id": 313,
                "col_name": "Eastern New York",
                "col_group": "Northern Appalachians",
                "col_group_id": 9,
                "group_col_id": "30.00",
                "lat": "42.56100",
                "lng": "-74.30000",
                "col_area": "10773.0",
                "project_id": 1,
                "col_type": "column",
                "refs": [
                    1
                ]
            },
            {
                "col_id": 316,
                "col_name": "Yukon-Koyukuk Basin",
                "col_group": "Southern Alaska",
                "col_group_id": 16,
                "group_col_id": "1.00",
                "lat": "64.97100",
                "lng": "-158.13100",
                "col_area": "91531.1",
                "project_id": 1,
                "col_type": "column",
                "refs": [
                    1
                ]
            },
            {
                "col_id": 317,
                "col_name": "Northern Kuskokwim Mountains",
                "col_group": "Southern Alaska",
                "col_group_id": 16,
                "group_col_id": "2.00",
                "lat": "64.91400",
                "lng": "-153.32600",
                "col_area": "46643.3",
                "project_id": 1,
                "col_type": "column",
                "refs": [
                    1
                ]
            },
            {
                "col_id": 320,
                "col_name": "Northeast Alaska Range, North of Denali Fault Mount Hayes Quadrangle",
                "col_group": "Southern Alaska",
                "col_group_id": 16,
                "group_col_id": "5.00",
                "lat": "64.32300",
                "lng": "-147.92500",
                "col_area": "14906.2",
                "project_id": 1,
                "col_type": "column",
                "refs": [
                    1
                ]
            },
            {
                "col_id": 324,
                "col_name": "Boulder Mountains Wood River and Central Pioneer Mountains, Central Idaho",
                "col_group": "Northern Rockies",
                "col_group_id": 13,
                "group_col_id": "1.00",
                "lat": "44.15000",
                "lng": "-114.35300",
                "col_area": "26877.2",
                "project_id": 1,
                "col_type": "column",
                "refs": [
                    1
                ]
            },
            {
                "col_id": 325,
                "col_name": "White Knob Mountains, Lost River and Lemhi Range, Central Idaho",
                "col_group": "Northern Rockies",
                "col_group_id": 13,
                "group_col_id": "2.00",
                "lat": "44.37500",
                "lng": "-113.48000",
                "col_area": "25030.0",
                "project_id": 1,
                "col_type": "column",
                "refs": [
                    1
                ]
            },
            {
                "col_id": 329,
                "col_name": "Glacier National Park Area, Northwestern Montana",
                "col_group": "Northern Rockies",
                "col_group_id": 13,
                "group_col_id": "6.00",
                "lat": "48.54400",
                "lng": "-113.83400",
                "col_area": "13493.5",
                "project_id": 1,
                "col_type": "column",
                "refs": [
                    1
                ]
            },
            {
                "col_id": 330,
                "col_name": "Southern Disturbed Belt, Northwestern Montana",
                "col_group": "Northern Rockies",
                "col_group_id": 13,
                "group_col_id": "7.00",
                "lat": "47.31600",
                "lng": "-112.72800",
                "col_area": "18357.9",
                "project_id": 1,
                "col_type": "column",
                "refs": [
                    1
                ]
            },
            {
                "col_id": 331,
                "col_name": "Missoula (pe, Te, Q Only), Drummond - Helena Area, Central Western Montana",
                "col_group": "Northern Rockies",
                "col_group_id": 13,
                "group_col_id": "8.00",
                "lat": "46.43500",
                "lng": "-112.89900",
                "col_area": "27302.2",
                "project_id": 1,
                "col_type": "column",
                "refs": [
                    1
                ]
            },
            {
                "col_id": 332,
                "col_name": "Butte - Bozeman and South, Southwestern Montana",
                "col_group": "Northern Rockies",
                "col_group_id": 13,
                "group_col_id": "9.00",
                "lat": "45.43500",
                "lng": "-112.11800",
                "col_area": "29450.6",
                "project_id": 1,
                "col_type": "column",
                "refs": [
                    1
                ]
            },
            {
                "col_id": 339,
                "col_name": "Cedar Creek Anticline Southwest Basin",
                "col_group": "Northern Rockies",
                "col_group_id": 13,
                "group_col_id": "16.00",
                "lat": "46.20900",
                "lng": "-105.36500",
                "col_area": "40685.4",
                "project_id": 1,
                "col_type": "column",
                "refs": [
                    1
                ]
            },
            {
                "col_id": 340,
                "col_name": "Billings County Central Basin",
                "col_group": "Northern Rockies",
                "col_group_id": 13,
                "group_col_id": "17.00",
                "lat": "47.27900",
                "lng": "-103.42100",
                "col_area": "21013.7",
                "project_id": 1,
                "col_type": "column",
                "refs": [
                    1
                ]
            },
            {
                "col_id": 341,
                "col_name": "Williams County Nesson Anticline",
                "col_group": "Northern Rockies",
                "col_group_id": 13,
                "group_col_id": "18.00",
                "lat": "48.38300",
                "lng": "-102.95000",
                "col_area": "39055.2",
                "project_id": 1,
                "col_type": "column",
                "refs": [
                    1
                ]
            },
            {
                "col_id": 342,
                "col_name": "Burleigh County East Basin",
                "col_group": "Northern Rockies",
                "col_group_id": 13,
                "group_col_id": "19.00",
                "lat": "47.24600",
                "lng": "-100.57500",
                "col_area": "36781.9",
                "project_id": 1,
                "col_type": "column",
                "refs": [
                    1
                ]
            },
            {
                "col_id": 343,
                "col_name": "Bottineau County Northeast Basin",
                "col_group": "Northern Rockies",
                "col_group_id": 13,
                "group_col_id": "20.00",
                "lat": "48.84900",
                "lng": "-100.80000",
                "col_area": "22995.6",
                "project_id": 1,
                "col_type": "column",
                "refs": [
                    1
                ]
            },
            {
                "col_id": 346,
                "col_name": "Adams and Harding Counties, Southwest Basin",
                "col_group": "Northern Rockies",
                "col_group_id": 13,
                "group_col_id": "23.00",
                "lat": "46.26600",
                "lng": "-102.95000",
                "col_area": "26650.5",
                "project_id": 1,
                "col_type": "column",
                "refs": [
                    1
                ]
            },
            {
                "col_id": 347,
                "col_name": "Pennington County Northern Black Hills",
                "col_group": "Northern Rockies",
                "col_group_id": 13,
                "group_col_id": "24.00",
                "lat": "44.95000",
                "lng": "-102.87800",
                "col_area": "27250.6",
                "project_id": 1,
                "col_type": "column",
                "refs": [
                    1
                ]
            },
            {
                "col_id": 353,
                "col_name": "Great Smoky Mountains, North of and Below Greenbriar Fault",
                "col_group": "Piedmont-Blue Ridge",
                "col_group_id": 15,
                "group_col_id": "5.00",
                "lat": "35.73500",
                "lng": "-83.11800",
                "col_area": "8196.2",
                "project_id": 1,
                "col_type": "column",
                "refs": [
                    1
                ]
            },
            {
                "col_id": 358,
                "col_name": "York - Lancaster Valley and Mine Ridge Area, Pennsylvania",
                "col_group": "Piedmont-Blue Ridge",
                "col_group_id": 15,
                "group_col_id": "10.00",
                "lat": "40.04100",
                "lng": "-75.95300",
                "col_area": "6150.5",
                "project_id": 1,
                "col_type": "column",
                "refs": [
                    1
                ]
            },
            {
                "col_id": 359,
                "col_name": "Delaware Valley - Pennsylvania - New Jersey",
                "col_group": "Piedmont-Blue Ridge",
                "col_group_id": 15,
                "group_col_id": "11.00",
                "lat": "40.43100",
                "lng": "-75.11100",
                "col_area": "3780.8",
                "project_id": 1,
                "col_type": "column",
                "refs": [
                    1
                ]
            },
            {
                "col_id": 364,
                "col_name": "Central and Western South Carolina Slate Belt",
                "col_group": "Piedmont-Blue Ridge",
                "col_group_id": 15,
                "group_col_id": "16.00",
                "lat": "34.19200",
                "lng": "-82.46500",
                "col_area": "25403.5",
                "project_id": 1,
                "col_type": "column",
                "refs": [
                    1
                ]
            },
            {
                "col_id": 365,
                "col_name": "North Carolina Slate Belt",
                "col_group": "Piedmont-Blue Ridge",
                "col_group_id": 15,
                "group_col_id": "17.00",
                "lat": "35.49000",
                "lng": "-79.67200",
                "col_area": "26945.6",
                "project_id": 1,
                "col_type": "column",
                "refs": [
                    1
                ]
            },
            {
                "col_id": 371,
                "col_name": "Lower Hudson Valley",
                "col_group": "Northeast United States",
                "col_group_id": 11,
                "group_col_id": "4.00",
                "lat": "41.38300",
                "lng": "-73.79100",
                "col_area": "6151.4",
                "project_id": 1,
                "col_type": "column",
                "refs": [
                    1
                ]
            },
            {
                "col_id": 372,
                "col_name": "Western Massachusetts West Side - Berkshire Anticlinorium",
                "col_group": "Northeast United States",
                "col_group_id": 11,
                "group_col_id": "5.00",
                "lat": "42.47600",
                "lng": "-73.22000",
                "col_area": "4599.9",
                "project_id": 1,
                "col_type": "column",
                "refs": [
                    1
                ]
            },
            {
                "col_id": 389,
                "col_name": "Eastern Maine",
                "col_group": "Northeast United States",
                "col_group_id": 11,
                "group_col_id": "22.00",
                "lat": "44.90300",
                "lng": "-67.37800",
                "col_area": "18144.3",
                "project_id": 1,
                "col_type": "column",
                "refs": [
                    1
                ]
            },
            {
                "col_id": 391,
                "col_name": "Boston Area",
                "col_group": "Northeast United States",
                "col_group_id": 11,
                "group_col_id": "24.00",
                "lat": "42.13800",
                "lng": "-71.01600",
                "col_area": "22851.5",
                "project_id": 1,
                "col_type": "column",
                "refs": [
                    1
                ]
            },
            {
                "col_id": 395,
                "col_name": "West Charley River",
                "col_group": "Northern Alaska",
                "col_group_id": 8,
                "group_col_id": "25.00",
                "lat": "65.91500",
                "lng": "-144.12500",
                "col_area": "21481.9",
                "project_id": 1,
                "col_type": "column",
                "refs": [
                    1
                ]
            },
            {
                "col_id": 396,
                "col_name": "East Charley River",
                "col_group": "Northern Alaska",
                "col_group_id": 8,
                "group_col_id": "26.00",
                "lat": "66.05400",
                "lng": "-141.52600",
                "col_area": "29079.8",
                "project_id": 1,
                "col_type": "column",
                "refs": [
                    1
                ]
            },
            {
                "col_id": 400,
                "col_name": "Shaw Creek Fault to Yukon Border",
                "col_group": "Northern Alaska",
                "col_group_id": 8,
                "group_col_id": "30.00",
                "lat": "63.64500",
                "lng": "-141.95900",
                "col_area": "30871.8",
                "project_id": 1,
                "col_type": "column",
                "refs": [
                    1
                ]
            },
            {
                "col_id": 401,
                "col_name": "Togiak",
                "col_group": "Southern Alaska",
                "col_group_id": 16,
                "group_col_id": "9.00",
                "lat": "59.06600",
                "lng": "-159.70800",
                "col_area": "19773.8",
                "project_id": 1,
                "col_type": "column",
                "refs": [
                    1
                ]
            },
            {
                "col_id": 402,
                "col_name": "Alaska Peninsula, False Pass to Chignik",
                "col_group": "Southern Alaska",
                "col_group_id": 16,
                "group_col_id": "10.00",
                "lat": "55.54700",
                "lng": "-161.18700",
                "col_area": "79781.3",
                "project_id": 1,
                "col_type": "column",
                "refs": [
                    1
                ]
            },
            {
                "col_id": 403,
                "col_name": "Alaska Peninsula, Chignik to Wide Bay",
                "col_group": "Southern Alaska",
                "col_group_id": 16,
                "group_col_id": "11.00",
                "lat": "56.91100",
                "lng": "-157.78600",
                "col_area": "72316.0",
                "project_id": 1,
                "col_type": "column",
                "refs": [
                    1
                ]
            },
            {
                "col_id": 404,
                "col_name": "Alaska Peninsula, Wide Bay to Cape Douglas",
                "col_group": "Southern Alaska",
                "col_group_id": 16,
                "group_col_id": "12.00",
                "lat": "58.60800",
                "lng": "-154.71600",
                "col_area": "60931.7",
                "project_id": 1,
                "col_type": "column",
                "refs": [
                    1
                ]
            },
            {
                "col_id": 410,
                "col_name": "Northern Wrangell Mountains, Nebesna Quadrangle",
                "col_group": "Southern Alaska",
                "col_group_id": 16,
                "group_col_id": "18.00",
                "lat": "62.39200",
                "lng": "-142.41800",
                "col_area": "22192.3",
                "project_id": 1,
                "col_type": "column",
                "refs": [
                    1
                ]
            },
            {
                "col_id": 411,
                "col_name": "Southern Wrangell Mountains, Mccarthy Quadrangle",
                "col_group": "Southern Alaska",
                "col_group_id": 16,
                "group_col_id": "19.00",
                "lat": "61.21700",
                "lng": "-141.98600",
                "col_area": "14899.8",
                "project_id": 1,
                "col_type": "column",
                "refs": [
                    1
                ]
            },
            {
                "col_id": 412,
                "col_name": "Chugach Mountains, North of Border Ranges Fault",
                "col_group": "Southern Alaska",
                "col_group_id": 16,
                "group_col_id": "20.00",
                "lat": "61.74300",
                "lng": "-146.91400",
                "col_area": "18444.6",
                "project_id": 1,
                "col_type": "column",
                "refs": [
                    1
                ]
            },
            {
                "col_id": 415,
                "col_name": "Prince William Sound and Middleton Island",
                "col_group": "Southern Alaska",
                "col_group_id": 16,
                "group_col_id": "23.00",
                "lat": "60.05800",
                "lng": "-147.19600",
                "col_area": "17264.1",
                "project_id": 1,
                "col_type": "column",
                "refs": [
                    1
                ]
            },
            {
                "col_id": 416,
                "col_name": "Katalla District",
                "col_group": "Southern Alaska",
                "col_group_id": 16,
                "group_col_id": "24.00",
                "lat": "60.35000",
                "lng": "-144.17800",
                "col_area": "17789.4",
                "project_id": 1,
                "col_type": "column",
                "refs": [
                    1
                ]
            },
            {
                "col_id": 418,
                "col_name": "Yakataga District",
                "col_group": "Southern Alaska",
                "col_group_id": 16,
                "group_col_id": "26.00",
                "lat": "60.22100",
                "lng": "-142.29200",
                "col_area": "10990.3",
                "project_id": 1,
                "col_type": "column",
                "refs": [
                    1
                ]
            },
            {
                "col_id": 424,
                "col_name": "Kuiu - Kupreanof Island, Southeast Alaska",
                "col_group": "Southern Alaska",
                "col_group_id": 16,
                "group_col_id": "32.00",
                "lat": "56.73800",
                "lng": "-133.80600",
                "col_area": "26979.6",
                "project_id": 1,
                "col_type": "column",
                "refs": [
                    1
                ]
            },
            {
                "col_id": 425,
                "col_name": "West-central Prince of Wales Island Craig Area, Southeast Alaska",
                "col_group": "Southern Alaska",
                "col_group_id": 16,
                "group_col_id": "33.00",
                "lat": "55.68300",
                "lng": "-133.26500",
                "col_area": "15178.0",
                "project_id": 1,
                "col_type": "column",
                "refs": [
                    1
                ]
            },
            {
                "col_id": 426,
                "col_name": "Southern Prince of Wales Island Hydaburg Area Southeast Alaska",
                "col_group": "Southern Alaska",
                "col_group_id": 16,
                "group_col_id": "34.00",
                "lat": "55.09400",
                "lng": "-132.33500",
                "col_area": "29990.5",
                "project_id": 1,
                "col_type": "column",
                "refs": [
                    1
                ]
            },
            {
                "col_id": 433,
                "col_name": "Illinois Basin - Southwestern Illinois",
                "col_group": "Midwestern Basins and Arches",
                "col_group_id": 6,
                "group_col_id": "8.00",
                "lat": "39.28300",
                "lng": "-90.32300",
                "col_area": "27448.7",
                "project_id": 1,
                "col_type": "column",
                "refs": [
                    1
                ]
            },
            {
                "col_id": 434,
                "col_name": "Illinois Basin - Southeastern Illinois",
                "col_group": "Midwestern Basins and Arches",
                "col_group_id": 6,
                "group_col_id": "9.00",
                "lat": "38.64600",
                "lng": "-88.92300",
                "col_area": "23313.0",
                "project_id": 1,
                "col_type": "column",
                "refs": [
                    1
                ]
            },
            {
                "col_id": 435,
                "col_name": "Illinois Basin - Eastern Illinois",
                "col_group": "Midwestern Basins and Arches",
                "col_group_id": 6,
                "group_col_id": "10.00",
                "lat": "39.34100",
                "lng": "-87.74100",
                "col_area": "26387.0",
                "project_id": 1,
                "col_type": "column",
                "refs": [
                    1
                ]
            },
            {
                "col_id": 436,
                "col_name": "Illinois Basin - Southwestern Indiana",
                "col_group": "Midwestern Basins and Arches",
                "col_group_id": 6,
                "group_col_id": "11.00",
                "lat": "38.63300",
                "lng": "-87.07300",
                "col_area": "11759.3",
                "project_id": 1,
                "col_type": "column",
                "refs": [
                    1
                ]
            },
            {
                "col_id": 437,
                "col_name": "Illinois Basin - West-central to South-central Indiana",
                "col_group": "Midwestern Basins and Arches",
                "col_group_id": 6,
                "group_col_id": "12.00",
                "lat": "39.42500",
                "lng": "-86.24100",
                "col_area": "15421.7",
                "project_id": 1,
                "col_type": "column",
                "refs": [
                    1
                ]
            },
            {
                "col_id": 438,
                "col_name": "Cincinnati and Kankakee Arches - Southeastern Indiana",
                "col_group": "Midwestern Basins and Arches",
                "col_group_id": 6,
                "group_col_id": "13.00",
                "lat": "39.09100",
                "lng": "-85.33300",
                "col_area": "14293.1",
                "project_id": 1,
                "col_type": "column",
                "refs": [
                    1
                ]
            },
            {
                "col_id": 439,
                "col_name": "Cincinnati and Kankakee Arches - Northwestern to East-central Indiana",
                "col_group": "Midwestern Basins and Arches",
                "col_group_id": 6,
                "group_col_id": "14.00",
                "lat": "40.81600",
                "lng": "-86.12500",
                "col_area": "25961.0",
                "project_id": 1,
                "col_type": "column",
                "refs": [
                    1
                ]
            },
            {
                "col_id": 443,
                "col_name": "Cincinnati Arch - Southwestern Ohio",
                "col_group": "Midwestern Basins and Arches",
                "col_group_id": 6,
                "group_col_id": "18.00",
                "lat": "39.43300",
                "lng": "-84.11600",
                "col_area": "12679.6",
                "project_id": 1,
                "col_type": "column",
                "refs": [
                    1
                ]
            },
            {
                "col_id": 444,
                "col_name": "Illinois Basin-western Kentucky - North of Rough Creek Fault",
                "col_group": "Midwestern Basins and Arches",
                "col_group_id": 6,
                "group_col_id": "19.00",
                "lat": "37.79500",
                "lng": "-86.83600",
                "col_area": "9360.0",
                "project_id": 1,
                "col_type": "column",
                "refs": [
                    1
                ]
            },
            {
                "col_id": 446,
                "col_name": "Illinois Basin-western Kentucky - South of Pennyrile Fault",
                "col_group": "Midwestern Basins and Arches",
                "col_group_id": 6,
                "group_col_id": "21.00",
                "lat": "36.80600",
                "lng": "-87.50000",
                "col_area": "11712.1",
                "project_id": 1,
                "col_type": "column",
                "refs": [
                    1
                ]
            },
            {
                "col_id": 447,
                "col_name": "Cumberland Saddle - South Central Kentucky",
                "col_group": "Midwestern Basins and Arches",
                "col_group_id": 6,
                "group_col_id": "22.00",
                "lat": "37.11600",
                "lng": "-85.62000",
                "col_area": "14594.3",
                "project_id": 1,
                "col_type": "column",
                "refs": [
                    1
                ]
            },
            {
                "col_id": 448,
                "col_name": "Jessamine Dome-cincinnati Arch West Flank - West Central Kentucky",
                "col_group": "Midwestern Basins and Arches",
                "col_group_id": 6,
                "group_col_id": "23.00",
                "lat": "37.84100",
                "lng": "-85.96600",
                "col_area": "11902.1",
                "project_id": 1,
                "col_type": "column",
                "refs": [
                    1
                ]
            },
            {
                "col_id": 450,
                "col_name": "Jessamine Dome-cincinnati Arch East Flank - East Central Kentucky",
                "col_group": "Midwestern Basins and Arches",
                "col_group_id": 6,
                "group_col_id": "25.00",
                "lat": "37.64100",
                "lng": "-84.40600",
                "col_area": "14622.9",
                "project_id": 1,
                "col_type": "column",
                "refs": [
                    1
                ]
            },
            {
                "col_id": 452,
                "col_name": "Nashville Dome Area - Central Tennessee",
                "col_group": "Midwestern Basins and Arches",
                "col_group_id": 6,
                "group_col_id": "27.00",
                "lat": "36.03000",
                "lng": "-86.75300",
                "col_area": "12938.7",
                "project_id": 1,
                "col_type": "column",
                "refs": [
                    1
                ]
            },
            {
                "col_id": 453,
                "col_name": "Nashville Dome Area - East Central Tennessee",
                "col_group": "Midwestern Basins and Arches",
                "col_group_id": 6,
                "group_col_id": "28.00",
                "lat": "35.53000",
                "lng": "-86.00300",
                "col_area": "9610.5",
                "project_id": 1,
                "col_type": "column",
                "refs": [
                    1
                ]
            },
            {
                "col_id": 454,
                "col_name": "Nashville Dome Area - Northwestern Alabama",
                "col_group": "Midwestern Basins and Arches",
                "col_group_id": 6,
                "group_col_id": "29.00",
                "lat": "34.96300",
                "lng": "-87.37900",
                "col_area": "10350.0",
                "project_id": 1,
                "col_type": "column",
                "refs": [
                    1
                ]
            },
            {
                "col_id": 456,
                "col_name": "Winnemucca-battle Mountain Area, Nevada",
                "col_group": "Great Basin",
                "col_group_id": 4,
                "group_col_id": "2.00",
                "lat": "40.71100",
                "lng": "-118.24100",
                "col_area": "32141.6",
                "project_id": 1,
                "col_type": "column",
                "refs": [
                    1
                ]
            },
            {
                "col_id": 459,
                "col_name": "Inyo and White Mountains, California",
                "col_group": "Great Basin",
                "col_group_id": 4,
                "group_col_id": "5.00",
                "lat": "37.30000",
                "lng": "-118.22300",
                "col_area": "25531.5",
                "project_id": 1,
                "col_type": "column",
                "refs": [
                    1
                ]
            },
            {
                "col_id": 462,
                "col_name": "Elko Area, Nevada",
                "col_group": "Great Basin",
                "col_group_id": 4,
                "group_col_id": "8.00",
                "lat": "40.99000",
                "lng": "-115.90000",
                "col_area": "33541.8",
                "project_id": 1,
                "col_type": "column",
                "refs": [
                    1
                ]
            },
            {
                "col_id": 464,
                "col_name": "Death Valley, California",
                "col_group": "Great Basin",
                "col_group_id": 4,
                "group_col_id": "10.00",
                "lat": "36.45300",
                "lng": "-116.92000",
                "col_area": "27369.8",
                "project_id": 1,
                "col_type": "column",
                "refs": [
                    1
                ]
            },
            {
                "col_id": 465,
                "col_name": "Ely Area, Nevada",
                "col_group": "Great Basin",
                "col_group_id": 4,
                "group_col_id": "11.00",
                "lat": "38.89500",
                "lng": "-114.64500",
                "col_area": "22986.6",
                "project_id": 1,
                "col_type": "column",
                "refs": [
                    1
                ]
            },
            {
                "col_id": 471,
                "col_name": "Deep Creek Mountains, Utah",
                "col_group": "Great Basin",
                "col_group_id": 4,
                "group_col_id": "17.00",
                "lat": "40.02500",
                "lng": "-113.90300",
                "col_area": "14877.4",
                "project_id": 1,
                "col_type": "column",
                "refs": [
                    1
                ]
            },
            {
                "col_id": 472,
                "col_name": "Needle and Northern Wah Wah Ranges, Utah",
                "col_group": "Great Basin",
                "col_group_id": 4,
                "group_col_id": "18.00",
                "lat": "38.08000",
                "lng": "-113.77800",
                "col_area": "6882.7",
                "project_id": 1,
                "col_type": "column",
                "refs": [
                    1
                ]
            },
            {
                "col_id": 474,
                "col_name": "Confusion and House Ranges, Utah",
                "col_group": "Great Basin",
                "col_group_id": 4,
                "group_col_id": "20.00",
                "lat": "38.91000",
                "lng": "-113.67500",
                "col_area": "8202.2",
                "project_id": 1,
                "col_type": "column",
                "refs": [
                    1
                ]
            },
            {
                "col_id": 475,
                "col_name": "Fish Springs, Thomas, Keg, and Drum Mountains, Utah",
                "col_group": "Great Basin",
                "col_group_id": 4,
                "group_col_id": "21.00",
                "lat": "39.74100",
                "lng": "-113.71600",
                "col_area": "8516.0",
                "project_id": 1,
                "col_type": "column",
                "refs": [
                    1
                ]
            },
            {
                "col_id": 476,
                "col_name": "Pocatello - Preston Area, Southeastern Idaho",
                "col_group": "Great Basin",
                "col_group_id": 4,
                "group_col_id": "22.00",
                "lat": "42.71000",
                "lng": "-112.31100",
                "col_area": "26556.2",
                "project_id": 1,
                "col_type": "column",
                "refs": [
                    1
                ]
            },
            {
                "col_id": 477,
                "col_name": "Northern Wasatch Allochthon, Utah",
                "col_group": "Great Basin",
                "col_group_id": 4,
                "group_col_id": "23.00",
                "lat": "41.70500",
                "lng": "-111.59300",
                "col_area": "11327.0",
                "project_id": 1,
                "col_type": "column",
                "refs": [
                    1
                ]
            },
            {
                "col_id": 478,
                "col_name": "East Tintic Mountains, Utah",
                "col_group": "Great Basin",
                "col_group_id": 4,
                "group_col_id": "24.00",
                "lat": "40.00300",
                "lng": "-112.02500",
                "col_area": "6611.7",
                "project_id": 1,
                "col_type": "column",
                "refs": [
                    1
                ]
            },
            {
                "col_id": 481,
                "col_name": "Central Wasatch Autochthon, Utah",
                "col_group": "Great Basin",
                "col_group_id": 4,
                "group_col_id": "27.00",
                "lat": "40.98000",
                "lng": "-111.61600",
                "col_area": "7023.6",
                "project_id": 1,
                "col_type": "column",
                "refs": [
                    1
                ]
            },
            {
                "col_id": 482,
                "col_name": "Southern Wasatch Allochthon, Utah",
                "col_group": "Great Basin",
                "col_group_id": 4,
                "group_col_id": "28.00",
                "lat": "40.24600",
                "lng": "-111.53600",
                "col_area": "6278.1",
                "project_id": 1,
                "col_type": "column",
                "refs": [
                    1
                ]
            },
            {
                "col_id": 484,
                "col_name": "Southwestern Utah",
                "col_group": "Great Basin",
                "col_group_id": 4,
                "group_col_id": "30.00",
                "lat": "37.30000",
                "lng": "-113.57800",
                "col_area": "18677.3",
                "project_id": 1,
                "col_type": "column",
                "refs": [
                    1
                ]
            },
            {
                "col_id": 485,
                "col_name": "Uinta Mountains, Utah",
                "col_group": "Great Basin",
                "col_group_id": 4,
                "group_col_id": "31.00",
                "lat": "40.85900",
                "lng": "-109.20200",
                "col_area": "10870.9",
                "project_id": 1,
                "col_type": "column",
                "refs": [
                    1
                ]
            },
            {
                "col_id": 486,
                "col_name": "Absaroka and Washakie Ranges",
                "col_group": "Central-Southern Rockies",
                "col_group_id": 3,
                "group_col_id": "2.00",
                "lat": "43.60000",
                "lng": "-109.83600",
                "col_area": "15866.5",
                "project_id": 1,
                "col_type": "column",
                "refs": [
                    1
                ]
            },
            {
                "col_id": 487,
                "col_name": "Yellowstone Volcanic Area",
                "col_group": "Central-Southern Rockies",
                "col_group_id": 3,
                "group_col_id": "1.00",
                "lat": "44.51300",
                "lng": "-110.57800",
                "col_area": "27618.0",
                "project_id": 1,
                "col_type": "column",
                "refs": [
                    1
                ]
            },
            {
                "col_id": 488,
                "col_name": "Estancia Basin",
                "col_group": "Central-Southern Rockies",
                "col_group_id": 3,
                "group_col_id": "30.00",
                "lat": "35.46300",
                "lng": "-106.07600",
                "col_area": "44986.1",
                "project_id": 1,
                "col_type": "column",
                "refs": [
                    1
                ]
            },
            {
                "col_id": 490,
                "col_name": "Black Mesa Basin",
                "col_group": "Central-Southern Rockies",
                "col_group_id": 3,
                "group_col_id": "28.00",
                "lat": "35.95100",
                "lng": "-109.90500",
                "col_area": "42252.4",
                "project_id": 1,
                "col_type": "column",
                "refs": [
                    1
                ]
            },
            {
                "col_id": 491,
                "col_name": "Plateau Province",
                "col_group": "Central-Southern Rockies",
                "col_group_id": 3,
                "group_col_id": "27.00",
                "lat": "36.03000",
                "lng": "-112.18000",
                "col_area": "56023.5",
                "project_id": 1,
                "col_type": "column",
                "refs": [
                    1
                ]
            },
            {
                "col_id": 492,
                "col_name": "Sierra Grande Uplift",
                "col_group": "Central-Southern Rockies",
                "col_group_id": 3,
                "group_col_id": "26.00",
                "lat": "36.64600",
                "lng": "-103.59500",
                "col_area": "37855.4",
                "project_id": 1,
                "col_type": "column",
                "refs": [
                    1
                ]
            },
            {
                "col_id": 494,
                "col_name": "San Juan Mountain Uplift",
                "col_group": "Central-Southern Rockies",
                "col_group_id": 3,
                "group_col_id": "24.00",
                "lat": "37.50600",
                "lng": "-106.77000",
                "col_area": "34945.3",
                "project_id": 1,
                "col_type": "column",
                "refs": [
                    1
                ]
            },
            {
                "col_id": 496,
                "col_name": "South Park Basin",
                "col_group": "Central-Southern Rockies",
                "col_group_id": 3,
                "group_col_id": "22.00",
                "lat": "38.71600",
                "lng": "-105.52500",
                "col_area": "27994.8",
                "project_id": 1,
                "col_type": "column",
                "refs": [
                    1
                ]
            },
            {
                "col_id": 499,
                "col_name": "Eagle Basin",
                "col_group": "Central-Southern Rockies",
                "col_group_id": 3,
                "group_col_id": "19.00",
                "lat": "38.88800",
                "lng": "-106.58000",
                "col_area": "23263.0",
                "project_id": 1,
                "col_type": "column",
                "refs": [
                    1
                ]
            },
            {
                "col_id": 500,
                "col_name": "Piceance Basin",
                "col_group": "Central-Southern Rockies",
                "col_group_id": 3,
                "group_col_id": "18.00",
                "lat": "38.96700",
                "lng": "-107.80000",
                "col_area": "28924.1",
                "project_id": 1,
                "col_type": "column",
                "refs": [
                    1
                ]
            },
            {
                "col_id": 501,
                "col_name": "Eastern Unita Basin",
                "col_group": "Central-Southern Rockies",
                "col_group_id": 3,
                "group_col_id": "17.00",
                "lat": "40.14400",
                "lng": "-109.26200",
                "col_area": "22166.6",
                "project_id": 1,
                "col_type": "column",
                "refs": [
                    1
                ]
            },
            {
                "col_id": 503,
                "col_name": "Hanna and Laramie Basins",
                "col_group": "Central-Southern Rockies",
                "col_group_id": 3,
                "group_col_id": "15.00",
                "lat": "41.58600",
                "lng": "-105.52800",
                "col_area": "23106.4",
                "project_id": 1,
                "col_type": "column",
                "refs": [
                    1
                ]
            },
            {
                "col_id": 504,
                "col_name": "Rocks Springs Uplift",
                "col_group": "Central-Southern Rockies",
                "col_group_id": 3,
                "group_col_id": "13.00",
                "lat": "41.14300",
                "lng": "-108.08100",
                "col_area": "21622.7",
                "project_id": 1,
                "col_type": "column",
                "refs": [
                    1
                ]
            },
            {
                "col_id": 505,
                "col_name": "Green River Basin",
                "col_group": "Central-Southern Rockies",
                "col_group_id": 3,
                "group_col_id": "12.00",
                "lat": "41.78300",
                "lng": "-109.20800",
                "col_area": "16005.5",
                "project_id": 1,
                "col_type": "column",
                "refs": [
                    1
                ]
            },