{
    "success": {
        "v": 2,
        "license": "CC-BY 4.0",
        "data": [
            {
                "col_id": 35,
                "col_name": "Plomosa and Dome Rock Mountains Area",
                "col_group": "Southwest Mid-Continent",
                "col_group_id": 19,
                "group_col_id": "1.00",
                "lat": "33.59100",
                "lng": "-114.06100",
                "col_area": "60048.7",
                "project_id": 1,
                "col_type": "column",
                "refs": [
                    1
                ]
            },
            {
                "col_id": 48,
                "col_name": "Southern Papago Reservation",
                "col_group": "Southwest Mid-Continent",
                "col_group_id": 19,
                "group_col_id": "2.00",
                "lat": "32.25200",
                "lng": "-111.66500",
                "col_area": "48450.0",
                "project_id": 1,
                "col_type": "column",
                "refs": [
                    1
                ]
            },
            {
                "col_id": 49,
                "col_name": "Sonoita Area",
                "col_group": "Southwest Mid-Continent",
                "col_group_id": 19,
                "group_col_id": "3.00",
                "lat": "31.62000",
                "lng": "-110.15000",
                "col_area": "33159.3",
                "project_id": 1,
                "col_type": "column",
                "refs": [
                    1
                ]
            },
            {
                "col_id": 51,
                "col_name": "Verde Valley",
                "col_group": "Southwest Mid-Continent",
                "col_group_id": 19,
                "group_col_id": "5.00",
                "lat": "33.87800",
                "lng": "-110.44000",
                "col_area": "49841.8",
                "project_id": 1,
                "col_type": "column",
                "refs": [
                    1
                ]
            },
            {
                "col_id": 71,
                "col_name": "Western Palo Duro Basin",
                "col_group": "Southwest Mid-Continent",
                "col_group_id": 19,
                "group_col_id": "24.00",
                "lat": "34.43300",
                "lng": "-101.83300",
                "col_area": "34829.0",
                "project_id": 1,
                "col_type": "column",
                "refs": [
                    1
                ]
            },
            {
                "col_id": 72,
                "col_name": "Eastern Palo Duro Basin",
                "col_group": "Southwest Mid-Continent",
                "col_group_id": 19,
                "group_col_id": "25.00",
                "lat": "33.73300",
                "lng": "-99.98300",
                "col_area": "35466.3",
                "project_id": 1,
                "col_type": "column",
                "refs": [
                    1
                ]
            },
            {
                "col_id": 84,
                "col_name": "Sheridan County, Nebraska",
                "col_group": "Midcontinent",
                "col_group_id": 7,
                "group_col_id": "7.00",
                "lat": "42.55100",
                "lng": "-102.35400",
                "col_area": "44069.3",
                "project_id": 1,
                "col_type": "column",
                "refs": [
                    1
                ]
            },
            {
                "col_id": 181,
                "col_name": "Rainy Lake District, Koochiching County, Minnesota",
                "col_group": "Northern Mid-Continent",
                "col_group_id": 12,
                "group_col_id": "10.00",
                "lat": "48.48300",
                "lng": "-93.10000",
                "col_area": "12214.5",
                "project_id": 1,
                "col_type": "column",
                "refs": [
                    1
                ]
            },
            {
                "col_id": 183,
                "col_name": "Cook County, Minnesota",
                "col_group": "Northern Mid-Continent",
                "col_group_id": 12,
                "group_col_id": "12.00",
                "lat": "47.84500",
                "lng": "-90.42800",
                "col_area": "23246.2",
                "project_id": 1,
                "col_type": "column",
                "refs": [
                    1
                ]
            },
            {
                "col_id": 194,
                "col_name": "Amasa Oval, Iron County, Michigan",
                "col_group": "Northern Mid-Continent",
                "col_group_id": 12,
                "group_col_id": "23.00",
                "lat": "46.34700",
                "lng": "-88.19100",
                "col_area": "8274.8",
                "project_id": 1,
                "col_type": "column",
                "refs": [
                    1
                ]
            },
            {
                "col_id": 204,
                "col_name": "Soledad Basin",
                "col_group": "Southern California",
                "col_group_id": 18,
                "group_col_id": "7.00",
                "lat": "34.45300",
                "lng": "-118.45300",
                "col_area": "3128.3",
                "project_id": 1,
                "col_type": "column",
                "refs": [
                    1
                ]
            },
            {
                "col_id": 205,
                "col_name": "San Fernando - Santa Susana Mountains",
                "col_group": "Southern California",
                "col_group_id": 18,
                "group_col_id": "8.00",
                "lat": "34.30300",
                "lng": "-118.52500",
                "col_area": "1433.8",
                "project_id": 1,
                "col_type": "column",
                "refs": [
                    1
                ]
            },
            {
                "col_id": 219,
                "col_name": "Corona",
                "col_group": "Southern California",
                "col_group_id": 18,
                "group_col_id": "18.00",
                "lat": "33.91100",
                "lng": "-117.53100",
                "col_area": "1772.3",
                "project_id": 1,
                "col_type": "column",
                "refs": [
                    1
                ]
            },
            {
                "col_id": 220,
                "col_name": "Elsinor/temecula",
                "col_group": "Southern California",
                "col_group_id": 18,
                "group_col_id": "19.00",
                "lat": "33.54900",
                "lng": "-117.08700",
                "col_area": "2715.5",
                "project_id": 1,
                "col_type": "column",
                "refs": [
                    1
                ]
            },
            {
                "col_id": 221,
                "col_name": "San Jacinto/Santa Rosa Mountains",
                "col_group": "Southern California",
                "col_group_id": 18,
                "group_col_id": "20.00",
                "lat": "33.63700",
                "lng": "-116.50000",
                "col_area": "4458.5",
                "project_id": 1,
                "col_type": "column",
                "refs": [
                    1
                ]
            },
            {
                "col_id": 222,
                "col_name": "Mecca Hills/Orocopia Mountains",
                "col_group": "Southern California",
                "col_group_id": 18,
                "group_col_id": "21.00",
                "lat": "33.57000",
                "lng": "-115.85000",
                "col_area": "6195.7",
                "project_id": 1,
                "col_type": "column",
                "refs": [
                    1
                ]
            },
            {
                "col_id": 226,
                "col_name": "Victorville",
                "col_group": "Southern California",
                "col_group_id": 18,
                "group_col_id": "25.00",
                "lat": "34.51200",
                "lng": "-117.32800",
                "col_area": "1998.6",
                "project_id": 1,
                "col_type": "column",
                "refs": [
                    1
                ]
            },
            {
                "col_id": 227,
                "col_name": "Kramer",
                "col_group": "Southern California",
                "col_group_id": 18,
                "group_col_id": "26.00",
                "lat": "34.98000",
                "lng": "-117.47000",
                "col_area": "9886.6",
                "project_id": 1,
                "col_type": "column",
                "refs": [
                    1
                ]
            },
            {
                "col_id": 228,
                "col_name": "Barstow",
                "col_group": "Southern California",
                "col_group_id": 18,
                "group_col_id": "27.00",
                "lat": "34.89000",
                "lng": "-116.92000",
                "col_area": "5942.8",
                "project_id": 1,
                "col_type": "column",
                "refs": [
                    1
                ]
            },
            {
                "col_id": 229,
                "col_name": "Hector",
                "col_group": "Southern California",
                "col_group_id": 18,
                "group_col_id": "28.00",
                "lat": "34.80000",
                "lng": "-116.38900",
                "col_area": "6949.9",
                "project_id": 1,
                "col_type": "column",
                "refs": [
                    1
                ]
            },
            {
                "col_id": 291,
                "col_name": "Harney Basin to Steens Mountains, South-Central Oregon",
                "col_group": "Northwest",
                "col_group_id": 14,
                "group_col_id": "26.00",
                "lat": "43.05100",
                "lng": "-118.88300",
                "col_area": "24273.2",
                "project_id": 1,
                "col_type": "column",
                "refs": [
                    1
                ]
            },
            {
                "col_id": 292,
                "col_name": "Pullman, Wa. to Snake River Gorge, Wa. Or Id.",
                "col_group": "Northwest",
                "col_group_id": 14,
                "group_col_id": "27.00",
                "lat": "46.55600",
                "lng": "-117.19900",
                "col_area": "34511.4",
                "project_id": 1,
                "col_type": "column",
                "refs": [
                    1
                ]
            },
            {
                "col_id": 316,
                "col_name": "Yukon-Koyukuk Basin",
                "col_group": "Southern Alaska",
                "col_group_id": 16,
                "group_col_id": "1.00",
                "lat": "64.97100",
                "lng": "-158.13100",
                "col_area": "91531.1",
                "project_id": 1,
                "col_type": "column",
                "refs": [
                    1
                ]
            },
            {
                "col_id": 317,
                "col_name": "Northern Kuskokwim Mountains",
                "col_group": "Southern Alaska",
                "col_group_id": 16,
                "group_col_id": "2.00",
                "lat": "64.91400",
                "lng": "-153.32600",
                "col_area": "46643.3",
                "project_id": 1,
                "col_type": "column",
                "refs": [
                    1
                ]
            },
            {
                "col_id": 319,
                "col_name": "North Central Alaska, Range Healy Area",
                "col_group": "Southern Alaska",
                "col_group_id": 16,
                "group_col_id": "4.00",
                "lat": "64.53300",
                "lng": "-149.97000",
                "col_area": "31099.5",
                "project_id": 1,
                "col_type": "column",
                "refs": [
                    1
                ]
            },
            {
                "col_id": 320,
                "col_name": "Northeast Alaska Range, North of Denali Fault Mount Hayes Quadrangle",
                "col_group": "Southern Alaska",
                "col_group_id": 16,
                "group_col_id": "5.00",
                "lat": "64.32300",
                "lng": "-147.92500",
                "col_area": "14906.2",
                "project_id": 1,
                "col_type": "column",
                "refs": [
                    1
                ]
            },
            {
                "col_id": 321,
                "col_name": "West Central Alaska Range, McKinley Area",
                "col_group": "Southern Alaska",
                "col_group_id": 16,
                "group_col_id": "6.00",
                "lat": "62.98600",
                "lng": "-151.93500",
                "col_area": "36917.9",
                "project_id": 1,
                "col_type": "column",
                "refs": [
                    1
                ]
            },
            {
                "col_id": 324,
                "col_name": "Boulder Mountains Wood River and Central Pioneer Mountains, Central Idaho",
                "col_group": "Northern Rockies",
                "col_group_id": 13,
                "group_col_id": "1.00",
                "lat": "44.15000",
                "lng": "-114.35300",
                "col_area": "26877.2",
                "project_id": 1,
                "col_type": "column",
                "refs": [
                    1
                ]
            },
            {
                "col_id": 328,
                "col_name": "Libby - Thompson Falls Area, Northwestern Montana",
                "col_group": "Northern Rockies",
                "col_group_id": 13,
                "group_col_id": "5.00",
                "lat": "47.93100",
                "lng": "-115.39200",
                "col_area": "25221.8",
                "project_id": 1,
                "col_type": "column",
                "refs": [
                    1
                ]
            },
            {
                "col_id": 340,
                "col_name": "Billings County Central Basin",
                "col_group": "Northern Rockies",
                "col_group_id": 13,
                "group_col_id": "17.00",
                "lat": "47.27900",
                "lng": "-103.42100",
                "col_area": "21013.7",
                "project_id": 1,
                "col_type": "column",
                "refs": [
                    1
                ]
            },
            {
                "col_id": 365,
                "col_name": "North Carolina Slate Belt",
                "col_group": "Piedmont-Blue Ridge",
                "col_group_id": 15,
                "group_col_id": "17.00",
                "lat": "35.49000",
                "lng": "-79.67200",
                "col_area": "26945.6",
                "project_id": 1,
                "col_type": "column",
                "refs": [
                    1
                ]
            },
            {
                "col_id": 367,
                "col_name": "Northern and Central Virginia Piedmont",
                "col_group": "Piedmont-Blue Ridge",
                "col_group_id": 15,
                "group_col_id": "19.00",
                "lat": "38.57700",
                "lng": "-77.66400",
                "col_area": "4957.0",
                "project_id": 1,
                "col_type": "column",
                "refs": [
                    1
                ]
            },
            {
                "col_id": 368,
                "col_name": "Eastern Maryland Piedmont",
                "col_group": "Piedmont-Blue Ridge",
                "col_group_id": 15,
                "group_col_id": "20.00",
                "lat": "39.48300",
                "lng": "-76.73600",
                "col_area": "4241.1",
                "project_id": 1,
                "col_type": "column",
                "refs": [
                    1
                ]
            },
            {
                "col_id": 377,
                "col_name": "Central Vermont",
                "col_group": "Northeast United States",
                "col_group_id": 11,
                "group_col_id": "10.00",
                "lat": "44.29500",
                "lng": "-72.63000",
                "col_area": "5747.7",
                "project_id": 1,
                "col_type": "column",
                "refs": [
                    1
                ]
            },
            {
                "col_id": 378,
                "col_name": "Northwestern New Hampshire",
                "col_group": "Northeast United States",
                "col_group_id": 11,
                "group_col_id": "11.00",
                "lat": "44.86000",
                "lng": "-71.20600",
                "col_area": "7524.0",
                "project_id": 1,
                "col_type": "column",
                "refs": [
                    1
                ]
            },
            {
                "col_id": 381,
                "col_name": "West - Central Maine",
                "col_group": "Northeast United States",
                "col_group_id": 11,
                "group_col_id": "14.00",
                "lat": "45.08300",
                "lng": "-70.55300",
                "col_area": "11814.5",
                "project_id": 1,
                "col_type": "column",
                "refs": [
                    1
                ]
            },
            {
                "col_id": 383,
                "col_name": "Northeastern Maine",
                "col_group": "Northeast United States",
                "col_group_id": 11,
                "group_col_id": "16.00",
                "lat": "46.64100",
                "lng": "-68.29600",
                "col_area": "12425.9",
                "project_id": 1,
                "col_type": "column",
                "refs": [
                    1
                ]
            },
            {
                "col_id": 385,
                "col_name": "Southern Maine",
                "col_group": "Northeast United States",
                "col_group_id": 11,
                "group_col_id": "18.00",
                "lat": "43.42500",
                "lng": "-70.57600",
                "col_area": "24238.0",
                "project_id": 1,
                "col_type": "column",
                "refs": [
                    1
                ]
            },
            {
                "col_id": 391,
                "col_name": "Boston Area",
                "col_group": "Northeast United States",
                "col_group_id": 11,
                "group_col_id": "24.00",
                "lat": "42.13800",
                "lng": "-71.01600",
                "col_area": "22851.5",
                "project_id": 1,
                "col_type": "column",
                "refs": [
                    1
                ]
            },
            {
                "col_id": 393,
                "col_name": "Seward Peninsula",
                "col_group": "Northern Alaska",
                "col_group_id": 8,
                "group_col_id": "23.00",
                "lat": "65.46800",
                "lng": "-163.46600",
                "col_area": "136570.2",
                "project_id": 1,
                "col_type": "column",
                "refs": [
                    1
                ]
            },
            {
                "col_id": 399,
                "col_name": "Chena River to Shaw Creek Fault",
                "col_group": "Northern Alaska",
                "col_group_id": 8,
                "group_col_id": "29.00",
                "lat": "64.66600",
                "lng": "-144.37100",
                "col_area": "20761.9",
                "project_id": 1,
                "col_type": "column",
                "refs": [
                    1
                ]
            },
            {
                "col_id": 400,
                "col_name": "Shaw Creek Fault to Yukon Border",
                "col_group": "Northern Alaska",
                "col_group_id": 8,
                "group_col_id": "30.00",
                "lat": "63.64500",
                "lng": "-141.95900",
                "col_area": "30871.8",
                "project_id": 1,
                "col_type": "column",
                "refs": [
                    1
                ]
            },
            {
                "col_id": 405,
                "col_name": "Cook Inlet",
                "col_group": "Southern Alaska",
                "col_group_id": 16,
                "group_col_id": "13.00",
                "lat": "60.00000",
                "lng": "-152.50800",
                "col_area": "51479.7",
                "project_id": 1,
                "col_type": "column",
                "refs": [
                    1
                ]
            },
            {
                "col_id": 408,
                "col_name": "Central Alaska Range South of Denali Fault, Wrangallia Terrane",
                "col_group": "Southern Alaska",
                "col_group_id": 16,
                "group_col_id": "16.00",
                "lat": "63.17500",
                "lng": "-147.92500",
                "col_area": "13323.1",
                "project_id": 1,
                "col_type": "column",
                "refs": [
                    1
                ]
            },
            {
                "col_id": 409,
                "col_name": "Central Alaska Range South of Denali Fault, Maclaren Terrane",
                "col_group": "Southern Alaska",
                "col_group_id": 16,
                "group_col_id": "17.00",
                "lat": "63.34000",
                "lng": "-145.83100",
                "col_area": "15112.6",
                "project_id": 1,
                "col_type": "column",
                "refs": [
                    1
                ]
            },
            {
                "col_id": 410,
                "col_name": "Northern Wrangell Mountains, Nebesna Quadrangle",
                "col_group": "Southern Alaska",
                "col_group_id": 16,
                "group_col_id": "18.00",
                "lat": "62.39200",
                "lng": "-142.41800",
                "col_area": "22192.3",
                "project_id": 1,
                "col_type": "column",
                "refs": [
                    1
                ]
            },
            {
                "col_id": 411,
                "col_name": "Southern Wrangell Mountains, Mccarthy Quadrangle",
                "col_group": "Southern Alaska",
                "col_group_id": 16,
                "group_col_id": "19.00",
                "lat": "61.21700",
                "lng": "-141.98600",
                "col_area": "14899.8",
                "project_id": 1,
                "col_type": "column",
                "refs": [
                    1
                ]
            },
            {
                "col_id": 412,
                "col_name": "Chugach Mountains, North of Border Ranges Fault",
                "col_group": "Southern Alaska",
                "col_group_id": 16,
                "group_col_id": "20.00",
                "lat": "61.74300",
                "lng": "-146.91400",
                "col_area": "18444.6",
                "project_id": 1,
                "col_type": "column",
                "refs": [
                    1
                ]
            },
            {
                "col_id": 413,
                "col_name": "Chugach Mountains South of Border Ranges Fault",
                "col_group": "Southern Alaska",
                "col_group_id": 16,
                "group_col_id": "21.00",
                "lat": "60.95800",
                "lng": "-148.72300",
                "col_area": "34145.5",
                "project_id": 1,
                "col_type": "column",
                "refs": [
                    1
                ]
            },
            {
                "col_id": 414,
                "col_name": "Kodiak Island",
                "col_group": "Southern Alaska",
                "col_group_id": 16,
                "group_col_id": "22.00",
                "lat": "57.55900",
                "lng": "-153.39700",
                "col_area": "38226.5",
                "project_id": 1,
                "col_type": "column",
                "refs": [
                    1
                ]
            },
            {
                "col_id": 432,
                "col_name": "Northern Arches to Illinois Basin - Northern and Western Illinois",
                "col_group": "Midwestern Basins and Arches",
                "col_group_id": 6,
                "group_col_id": "7.00",
                "lat": "41.24000",
                "lng": "-89.33300",
                "col_area": "42690.2",
                "project_id": 1,
                "col_type": "column",
                "refs": [
                    1
                ]
            },
            {
                "col_id": 443,
                "col_name": "Cincinnati Arch - Southwestern Ohio",
                "col_group": "Midwestern Basins and Arches",
                "col_group_id": 6,
                "group_col_id": "18.00",
                "lat": "39.43300",
                "lng": "-84.11600",
                "col_area": "12679.6",
                "project_id": 1,
                "col_type": "column",
                "refs": [
                    1
                ]
            },
            {
                "col_id": 455,
                "col_name": "Northwestern Nevada, Humboldt and Washoe Counties",
                "col_group": "Great Basin",
                "col_group_id": 4,
                "group_col_id": "1.00",
                "lat": "41.45800",
                "lng": "-119.04100",
                "col_area": "27105.7",
                "project_id": 1,
                "col_type": "column",
                "refs": [
                    1
                ]
            },
            {
                "col_id": 456,
                "col_name": "Winnemucca-battle Mountain Area, Nevada",
                "col_group": "Great Basin",
                "col_group_id": 4,
                "group_col_id": "2.00",
                "lat": "40.71100",
                "lng": "-118.24100",
                "col_area": "32141.6",
                "project_id": 1,
                "col_type": "column",
                "refs": [
                    1
                ]
            },
            {
                "col_id": 457,
                "col_name": "Reno Area, Nevada",
                "col_group": "Great Basin",
                "col_group_id": 4,
                "group_col_id": "3.00",
                "lat": "39.21000",
                "lng": "-119.55800",
                "col_area": "24743.7",
                "project_id": 1,
                "col_type": "column",
                "refs": [
                    1
                ]
            },
            {
                "col_id": 458,
                "col_name": "Central and Northern Esmeralda County and Southeastern Mineral County, Neva",
                "col_group": "Great Basin",
                "col_group_id": 4,
                "group_col_id": "4.00",
                "lat": "38.23100",
                "lng": "-117.71300",
                "col_area": "24012.7",
                "project_id": 1,
                "col_type": "column",
                "refs": [
                    1
                ]
            },
            {
                "col_id": 461,
                "col_name": "Mountain City, Nevada to Twin Falls, Idaho",
                "col_group": "Great Basin",
                "col_group_id": 4,
                "group_col_id": "7.00",
                "lat": "42.18600",
                "lng": "-115.94500",
                "col_area": "26235.3",
                "project_id": 1,
                "col_type": "column",
                "refs": [
                    1
                ]
            },
            {
                "col_id": 462,
                "col_name": "Elko Area, Nevada",
                "col_group": "Great Basin",
                "col_group_id": 4,
                "group_col_id": "8.00",
                "lat": "40.99000",
                "lng": "-115.90000",
                "col_area": "33541.8",
                "project_id": 1,
                "col_type": "column",
                "refs": [
                    1
                ]
            },
            {
                "col_id": 463,
                "col_name": "Eureka Area, Nevada",
                "col_group": "Great Basin",
                "col_group_id": 4,
                "group_col_id": "9.00",
                "lat": "39.15500",
                "lng": "-117.00000",
                "col_area": "34258.0",
                "project_id": 1,
                "col_type": "column",
                "refs": [
                    1
                ]
            },
            {
                "col_id": 464,
                "col_name": "Death Valley, California",
                "col_group": "Great Basin",
                "col_group_id": 4,
                "group_col_id": "10.00",
                "lat": "36.45300",
                "lng": "-116.92000",
                "col_area": "27369.8",
                "project_id": 1,
                "col_type": "column",
                "refs": [
                    1
                ]
            },
            {
                "col_id": 465,
                "col_name": "Ely Area, Nevada",
                "col_group": "Great Basin",
                "col_group_id": 4,
                "group_col_id": "11.00",
                "lat": "38.89500",
                "lng": "-114.64500",
                "col_area": "22986.6",
                "project_id": 1,
                "col_type": "column",
                "refs": [
                    1
                ]
            },
            {
                "col_id": 473,
                "col_name": "Star Range and Mineral Mountains, Utah",
                "col_group": "Great Basin",
                "col_group_id": 4,
                "group_col_id": "19.00",
                "lat": "38.34100",
                "lng": "-112.97300",
                "col_area": "10016.7",
                "project_id": 1,
                "col_type": "column",
                "refs": [
                    1
                ]
            },
            {
                "col_id": 481,
                "col_name": "Central Wasatch Autochthon, Utah",
                "col_group": "Great Basin",
                "col_group_id": 4,
                "group_col_id": "27.00",
                "lat": "40.98000",
                "lng": "-111.61600",
                "col_area": "7023.6",
                "project_id": 1,
                "col_type": "column",
                "refs": [
                    1
                ]
            },
            {
                "col_id": 487,
                "col_name": "Yellowstone Volcanic Area",
                "col_group": "Central-Southern Rockies",
                "col_group_id": 3,
                "group_col_id": "1.00",
                "lat": "44.51300",
                "lng": "-110.57800",
                "col_area": "27618.0",
                "project_id": 1,
                "col_type": "column",
                "refs": [
                    1
                ]
            },
            {
                "col_id": 488,
                "col_name": "Estancia Basin",
                "col_group": "Central-Southern Rockies",
                "col_group_id": 3,
                "group_col_id": "30.00",
                "lat": "35.46300",
                "lng": "-106.07600",
                "col_area": "44986.1",
                "project_id": 1,
                "col_type": "column",
                "refs": [
                    1
                ]
            },
            {
                "col_id": 492,
                "col_name": "Sierra Grande Uplift",
                "col_group": "Central-Southern Rockies",
                "col_group_id": 3,
                "group_col_id": "26.00",
                "lat": "36.64600",
                "lng": "-103.59500",
                "col_area": "37855.4",
                "project_id": 1,
                "col_type": "column",
                "refs": [
                    1
                ]
            },
            {
                "col_id": 493,
                "col_name": "Las Vegas - Raton Basin",
                "col_group": "Central-Southern Rockies",
                "col_group_id": 3,
                "group_col_id": "25.00",
                "lat": "37.28300",
                "lng": "-104.14800",
                "col_area": "30837.3",
                "project_id": 1,
                "col_type": "column",
                "refs": [
                    1
                ]
            },
            {
                "col_id": 495,
                "col_name": "Paradox Basin",
                "col_group": "Central-Southern Rockies",
                "col_group_id": 3,
                "group_col_id": "23.00",
                "lat": "37.89100",
                "lng": "-109.39500",
                "col_area": "46264.3",
                "project_id": 1,
                "col_type": "column",
                "refs": [
                    1
                ]
            },
            {
                "col_id": 497,
                "col_name": "Eastern Denver Basin",
                "col_group": "Central-Southern Rockies",
                "col_group_id": 3,
                "group_col_id": "21.00",
                "lat": "39.64100",
                "lng": "-103.33300",
                "col_area": "36189.3",
                "project_id": 1,
                "col_type": "column",
                "refs": [
                    1
                ]
            },
            {
                "col_id": 499,
                "col_name": "Eagle Basin",
                "col_group": "Central-Southern Rockies",
                "col_group_id": 3,
                "group_col_id": "19.00",
                "lat": "38.88800",
                "lng": "-106.58000",
                "col_area": "23263.0",
                "project_id": 1,
                "col_type": "column",
                "refs": [
                    1
                ]
            },
            {
                "col_id": 500,
                "col_name": "Piceance Basin",
                "col_group": "Central-Southern Rockies",
                "col_group_id": 3,
                "group_col_id": "18.00",
                "lat": "38.96700",
                "lng": "-107.80000",
                "col_area": "28924.1",
                "project_id": 1,
                "col_type": "column",
                "refs": [
                    1
                ]
            },
            {
                "col_id": 501,
                "col_name": "Eastern Unita Basin",
                "col_group": "Central-Southern Rockies",
                "col_group_id": 3,
                "group_col_id": "17.00",
                "lat": "40.14400",
                "lng": "-109.26200",
                "col_area": "22166.6",
                "project_id": 1,
                "col_type": "column",
                "refs": [
                    1
                ]
            },
            {
                "col_id": 502,
                "col_name": "Western Uinta Basin",
                "col_group": "Central-Southern Rockies",
                "col_group_id": 3,
                "group_col_id": "16.00",
                "lat": "40.24500",
                "lng": "-110.82000",
                "col_area": "20528.2",
                "project_id": 1,
                "col_type": "column",
                "refs": [
                    1
                ]
            },
            {
                "col_id": 550,
                "col_name": "Ben Lomond",
                "col_group": "Central California",
                "col_group_id": 2,
                "group_col_id": "4.00",
                "lat": "37.06900",
                "lng": "-122.10400",
                "col_area": "2402.2",
                "project_id": 1,
                "col_type": "column",
                "refs": [
                    1
                ]
            },
            {
                "col_id": 551,
                "col_name": "La Honda",
                "col_group": "Central California",
                "col_group_id": 2,
                "group_col_id": "5.00",
                "lat": "37.32200",
                "lng": "-122.27200",
                "col_area": "723.2",
                "project_id": 1,
                "col_type": "column",
                "refs": [
                    1
                ]
            },
            {
                "col_id": 554,
                "col_name": "Point Reyes",
                "col_group": "Central California",
                "col_group_id": 2,
                "group_col_id": "8.00",
                "lat": "38.08300",
                "lng": "-122.90800",
                "col_area": "3438.4",
                "project_id": 1,
                "col_type": "column",
                "refs": [
                    1
                ]
            },
            {
                "col_id": 555,
                "col_name": "Indians Ranch",
                "col_group": "Central California",
                "col_group_id": 2,
                "group_col_id": "9.00",
                "lat": "36.07800",
                "lng": "-121.45600",
                "col_area": "4839.0",
                "project_id": 1,
                "col_type": "column",
                "refs": [
                    1
                ]
            },
            {
                "col_id": 556,
                "col_name": "Indian and Shell Creeks, La Panza Range",
                "col_group": "Central California",
                "col_group_id": 2,
                "group_col_id": "10.00",
                "lat": "35.38900",
                "lng": "-120.28800",
                "col_area": "1986.2",
                "project_id": 1,
                "col_type": "column",
                "refs": [
                    1
                ]
            },
            {
                "col_id": 558,
                "col_name": "Carmel Valley",
                "col_group": "Central California",
                "col_group_id": 2,
                "group_col_id": "12.00",
                "lat": "36.48200",
                "lng": "-121.74100",
                "col_area": "3055.7",
                "project_id": 1,
                "col_type": "column",
                "refs": [
                    1
                ]
            },
            {
                "col_id": 570,
                "col_name": "Wheeler Ridge",
                "col_group": "Central California",
                "col_group_id": 2,
                "group_col_id": "24.00",
                "lat": "34.99000",
                "lng": "-118.89000",
                "col_area": "1310.2",
                "project_id": 1,
                "col_type": "column",
                "refs": [
                    1
                ]
            },
            {
                "col_id": 576,
                "col_name": "Southern Hudson Bay",
                "col_group": "Southeastern Canada",
                "col_group_id": 22,
                "group_col_id": "2.00",
                "lat": "55.16800",
                "lng": "-87.15200",
                "col_area": "143246.8",
                "project_id": 1,
                "col_type": "column",
                "refs": [
                    2
                ]
            },
            {
                "col_id": 577,
                "col_name": "Northern Hudson Bay",
                "col_group": "Southeastern Canada",
                "col_group_id": 22,
                "group_col_id": "1.00",
                "lat": "64.06200",
                "lng": "-84.82100",
                "col_area": "151562.3",
                "project_id": 1,
                "col_type": "column",
                "refs": [
                    2
                ]
            },
            {
                "col_id": 630,
                "col_name": "Lower Saint John River",
                "col_group": "Southeastern Canada",
                "col_group_id": 22,
                "group_col_id": "27.00",
                "lat": "45.26000",
                "lng": "-66.08700",
                "col_area": "9710.2",
                "project_id": 1,
                "col_type": "column",
                "refs": [
                    2
                ]
            },
            {
                "col_id": 748,
                "col_name": "Yellowknife",
                "col_group": "Canadian Shield",
                "col_group_id": 21,
                "group_col_id": "1.00",
                "lat": "62.45600",
                "lng": "-114.35100",
                "col_area": "79789.6",
                "project_id": 1,
                "col_type": "column",
                "refs": [
                    2
                ]
            },
            {
                "col_id": 749,
                "col_name": "Tumi Lake",
                "col_group": "Canadian Shield",
                "col_group_id": 21,
                "group_col_id": "2.00",
                "lat": "63.19600",
                "lng": "-116.83900",
                "col_area": "31631.2",
                "project_id": 1,
                "col_type": "column",
                "refs": [
                    2
                ]
            },
            {
                "col_id": 750,
                "col_name": "Baler, Indin Lakes",
                "col_group": "Canadian Shield",
                "col_group_id": 21,
                "group_col_id": "3.00",
                "lat": "64.00200",
                "lng": "-117.30300",
                "col_area": "16787.0",
                "project_id": 1,
                "col_type": "column",
                "refs": [
                    2
                ]
            },
            {
                "col_id": 751,
                "col_name": "Arseno, Mesa, Grant Lakes",
                "col_group": "Canadian Shield",
                "col_group_id": 21,
                "group_col_id": "4.00",
                "lat": "64.99000",
                "lng": "-117.75100",
                "col_area": "30599.9",
                "project_id": 1,
                "col_type": "column",
                "refs": [
                    2
                ]
            },
            {
                "col_id": 752,
                "col_name": "Port Radium to Artic Coast",
                "col_group": "Canadian Shield",
                "col_group_id": 21,
                "group_col_id": "5.00",
                "lat": "67.05300",
                "lng": "-118.45500",
                "col_area": "78079.5",
                "project_id": 1,
                "col_type": "column",
                "refs": [
                    2
                ]
            },
            {
                "col_id": 753,
                "col_name": "Point Lake to Coppermine",
                "col_group": "Canadian Shield",
                "col_group_id": 21,
                "group_col_id": "6.00",
                "lat": "67.53800",
                "lng": "-113.81200",
                "col_area": "85334.1",
                "project_id": 1,
                "col_type": "column",
                "refs": [
                    2
                ]
            },
            {
                "col_id": 754,
                "col_name": "Contwoyto Lake to Kent Peninsula",
                "col_group": "Canadian Shield",
                "col_group_id": 21,
                "group_col_id": "7.00",
                "lat": "66.73000",
                "lng": "-110.33400",
                "col_area": "107542.4",
                "project_id": 1,
                "col_type": "column",
                "refs": [
                    2
                ]
            },
            {
                "col_id": 755,
                "col_name": "Victoria Island",
                "col_group": "Canadian Shield",
                "col_group_id": 21,
                "group_col_id": "8.00",
                "lat": "71.09800",
                "lng": "-115.85800",
                "col_area": "87643.2",
                "project_id": 1,
                "col_type": "column",
                "refs": [
                    2
                ]
            },
            {
                "col_id": 756,
                "col_name": "East Arm Great Slave Lake",
                "col_group": "Canadian Shield",
                "col_group_id": 21,
                "group_col_id": "9.00",
                "lat": "62.90400",
                "lng": "-109.36700",
                "col_area": "75979.2",
                "project_id": 1,
                "col_type": "column",
                "refs": [
                    2
                ]
            },
            {
                "col_id": 757,
                "col_name": "Thelon River, Baker Lake",
                "col_group": "Canadian Shield",
                "col_group_id": 21,
                "group_col_id": "10.00",
                "lat": "64.41900",
                "lng": "-97.46900",
                "col_area": "151523.0",
                "project_id": 1,
                "col_type": "column",
                "refs": [
                    2
                ]
            },
            {
                "col_id": 758,
                "col_name": "Back River, Chantrey Inlet",
                "col_group": "Canadian Shield",
                "col_group_id": 21,
                "group_col_id": "11.00",
                "lat": "67.22300",
                "lng": "-96.11000",
                "col_area": "113333.8",
                "project_id": 1,
                "col_type": "column",
                "refs": [
                    2
                ]
            },
            {
                "col_id": 759,
                "col_name": "Boothia Peninsula",
                "col_group": "Canadian Shield",
                "col_group_id": 21,
                "group_col_id": "12.00",
                "lat": "71.78100",
                "lng": "-94.73800",
                "col_area": "49983.5",
                "project_id": 1,
                "col_type": "column",
                "refs": [
                    2
                ]
            },
            {
                "col_id": 760,
                "col_name": "Wager Bay",
                "col_group": "Canadian Shield",
                "col_group_id": 21,
                "group_col_id": "13.00",
                "lat": "65.89200",
                "lng": "-90.56500",
                "col_area": "210314.9",
                "project_id": 1,
                "col_type": "column",
                "refs": [
                    2
                ]
            },
            {
                "col_id": 761,
                "col_name": "Henik Lake",
                "col_group": "Canadian Shield",
                "col_group_id": 21,
                "group_col_id": "14.00",
                "lat": "61.53600",
                "lng": "-97.79800",
                "col_area": "175195.9",
                "project_id": 1,
                "col_type": "column",
                "refs": [
                    2
                ]
            },
            {
                "col_id": 762,
                "col_name": "Snowbird Lake",
                "col_group": "Canadian Shield",
                "col_group_id": 21,
                "group_col_id": "15.00",
                "lat": "60.46800",
                "lng": "-103.18200",
                "col_area": "182090.0",
                "project_id": 1,
                "col_type": "column",
                "refs": [
                    2
                ]
            },
            {
                "col_id": 764,
                "col_name": "Uranium City",
                "col_group": "Canadian Shield",
                "col_group_id": 21,
                "group_col_id": "17.00",
                "lat": "59.50400",
                "lng": "-108.32300",
                "col_area": "128313.3",
                "project_id": 1,
                "col_type": "column",
                "refs": [
                    2
                ]
            },
            {
                "col_id": 765,
                "col_name": "Amisk, Wildnest Lakes",
                "col_group": "Canadian Shield",
                "col_group_id": 21,
                "group_col_id": "18.00",
                "lat": "54.64500",
                "lng": "-103.29600",
                "col_area": "89130.9",
                "project_id": 1,
                "col_type": "column",
                "refs": [
                    2
                ]
            },
            {
                "col_id": 766,
                "col_name": "Flin-Flon",
                "col_group": "Canadian Shield",
                "col_group_id": 21,
                "group_col_id": "19.00",
                "lat": "54.76800",
                "lng": "-101.88100",
                "col_area": "33536.4",
                "project_id": 1,
                "col_type": "column",
                "refs": [
                    2
                ]
            },
            {
                "col_id": 767,
                "col_name": "Lynn Lake, Granville Lake",
                "col_group": "Canadian Shield",
                "col_group_id": 21,
                "group_col_id": "20.00",
                "lat": "56.53400",
                "lng": "-100.90600",
                "col_area": "87516.5",
                "project_id": 1,
                "col_type": "column",
                "refs": [
                    2
                ]
            },
            {
                "col_id": 768,
                "col_name": "Thompson, Moak Lake",
                "col_group": "Canadian Shield",
                "col_group_id": 21,
                "group_col_id": "21.00",
                "lat": "55.74600",
                "lng": "-97.89300",
                "col_area": "94827.7",
                "project_id": 1,
                "col_type": "column",
                "refs": [
                    2
                ]
            },
            {
                "col_id": 769,
                "col_name": "Cape Smith, Wakham Bay",
                "col_group": "Canadian Shield",
                "col_group_id": 21,
                "group_col_id": "22.00",
                "lat": "61.14400",
                "lng": "-74.83600",
                "col_area": "282089.4",
                "project_id": 1,
                "col_type": "column",
                "refs": [
                    2
                ]
            },
            {
                "col_id": 770,
                "col_name": "Schefferville",
                "col_group": "Canadian Shield",
                "col_group_id": 21,
                "group_col_id": "23.00",
                "lat": "54.94700",
                "lng": "-67.00600",
                "col_area": "220768.5",
                "project_id": 1,
                "col_type": "column",
                "refs": [
                    2
                ]
            },
            {
                "col_id": 771,
                "col_name": "Richmond Gulf",
                "col_group": "Canadian Shield",
                "col_group_id": 21,
                "group_col_id": "24.00",
                "lat": "56.24700",
                "lng": "-76.35200",
                "col_area": "197740.3",
                "project_id": 1,
                "col_type": "column",
                "refs": [
                    2
                ]
            },
            {
                "col_id": 773,
                "col_name": "Southern Baffin Island",
                "col_group": "Canadian Shield",
                "col_group_id": 21,
                "group_col_id": "26.00",
                "lat": "65.65600",
                "lng": "-69.64300",
                "col_area": "394119.0",
                "project_id": 1,
                "col_type": "column",
                "refs": [
                    2
                ]
            },
            {
                "col_id": 774,
                "col_name": "Northern Baffin Island",
                "col_group": "Canadian Shield",
                "col_group_id": 21,
                "group_col_id": "27.00",
                "lat": "71.81100",
                "lng": "-79.15700",
                "col_area": "88429.0",
                "project_id": 1,
                "col_type": "column",
                "refs": [
                    2
                ]
            },
            {
                "col_id": 775,
                "col_name": "Cross, Gods Lakes",
                "col_group": "Canadian Shield",
                "col_group_id": 21,
                "group_col_id": "28.00",
                "lat": "54.61100",
                "lng": "-97.76200",
                "col_area": "63762.8",
                "project_id": 1,
                "col_type": "column",
                "refs": [
                    2
                ]
            },
            {
                "col_id": 776,
                "col_name": "Island Lake",
                "col_group": "Canadian Shield",
                "col_group_id": 21,
                "group_col_id": "29.00",
                "lat": "53.83400",
                "lng": "-94.60500",
                "col_area": "109836.3",
                "project_id": 1,
                "col_type": "column",
                "refs": [
                    2
                ]
            },
            {
                "col_id": 777,
                "col_name": "Rice Lake-Lac Du Bonnet",
                "col_group": "Canadian Shield",
                "col_group_id": 21,
                "group_col_id": "30.00",
                "lat": "50.33800",
                "lng": "-95.99100",
                "col_area": "60370.2",
                "project_id": 1,
                "col_type": "column",
                "refs": [
                    2
                ]
            },
            {
                "col_id": 778,
                "col_name": "Birch, Uchi Lakes",
                "col_group": "Canadian Shield",
                "col_group_id": 21,
                "group_col_id": "31.00",
                "lat": "51.12400",
                "lng": "-92.51700",
                "col_area": "109073.4",
                "project_id": 1,
                "col_type": "column",
                "refs": [
                    2
                ]
            },
            {
                "col_id": 779,
                "col_name": "Lake of the Woods",
                "col_group": "Canadian Shield",
                "col_group_id": 21,
                "group_col_id": "32.00",
                "lat": "49.14000",
                "lng": "-94.33300",
                "col_area": "28548.4",
                "project_id": 1,
                "col_type": "column",
                "refs": [
                    2
                ]
            },
            {
                "col_id": 780,
                "col_name": "Rainy River",
                "col_group": "Canadian Shield",
                "col_group_id": 21,
                "group_col_id": "33.00",
                "lat": "48.92900",
                "lng": "-93.86300",
                "col_area": "12891.5",
                "project_id": 1,
                "col_type": "column",
                "refs": [
                    2
                ]
            },
            {
                "col_id": 781,
                "col_name": "Rainy River, EMO",
                "col_group": "Canadian Shield",
                "col_group_id": 21,
                "group_col_id": "34.00",
                "lat": "48.80300",
                "lng": "-92.77500",
                "col_area": "19937.5",
                "project_id": 1,
                "col_type": "column",
                "refs": [
                    2
                ]
            },
            {
                "col_id": 782,
                "col_name": "Steep Rock",
                "col_group": "Canadian Shield",
                "col_group_id": 21,
                "group_col_id": "35.00",
                "lat": "49.25200",
                "lng": "-87.91500",
                "col_area": "117460.8",
                "project_id": 1,
                "col_type": "column",
                "refs": [
                    2
                ]
            },
            {
                "col_id": 783,
                "col_name": "Port Arthur",
                "col_group": "Canadian Shield",
                "col_group_id": 21,
                "group_col_id": "36.00",
                "lat": "48.55100",
                "lng": "-89.20400",
                "col_area": "41036.9",
                "project_id": 1,
                "col_type": "column",
                "refs": [
                    2
                ]
            },
            {
                "col_id": 784,
                "col_name": "Kapuskasing",
                "col_group": "Canadian Shield",
                "col_group_id": 21,
                "group_col_id": "37.00",
                "lat": "49.41600",
                "lng": "-82.43300",
                "col_area": "72573.9",
                "project_id": 1,
                "col_type": "column",
                "refs": [
                    2
                ]
            },
            {
                "col_id": 785,
                "col_name": "Porcupine",
                "col_group": "Canadian Shield",
                "col_group_id": 21,
                "group_col_id": "38.00",
                "lat": "48.60300",
                "lng": "-81.27900",
                "col_area": "27988.0",
                "project_id": 1,
                "col_type": "column",
                "refs": [
                    2
                ]
            },
            {
                "col_id": 786,
                "col_name": "Kirkland",
                "col_group": "Canadian Shield",
                "col_group_id": 21,
                "group_col_id": "39.00",
                "lat": "48.15100",
                "lng": "-80.02900",
                "col_area": "16276.4",
                "project_id": 1,
                "col_type": "column",
                "refs": [
                    2
                ]
            },
            {
                "col_id": 787,
                "col_name": "Noranda",
                "col_group": "Canadian Shield",
                "col_group_id": 21,
                "group_col_id": "40.00",
                "lat": "48.24400",
                "lng": "-79.02200",
                "col_area": "32719.9",
                "project_id": 1,
                "col_type": "column",
                "refs": [
                    2
                ]
            },
            {
                "col_id": 788,
                "col_name": "Malartic",
                "col_group": "Canadian Shield",
                "col_group_id": 21,
                "group_col_id": "41.00",
                "lat": "48.94600",
                "lng": "-76.50900",
                "col_area": "47231.2",
                "project_id": 1,
                "col_type": "column",
                "refs": [
                    2
                ]
            },
            {
                "col_id": 789,
                "col_name": "Chibougamau",
                "col_group": "Canadian Shield",
                "col_group_id": 21,
                "group_col_id": "42.00",
                "lat": "50.06500",
                "lng": "-74.36600",
                "col_area": "125553.0",
                "project_id": 1,
                "col_type": "column",
                "refs": [
                    2
                ]
            },
            {
                "col_id": 790,
                "col_name": "Fort George, Eastmain Rivers",
                "col_group": "Canadian Shield",
                "col_group_id": 21,
                "group_col_id": "43.00",
                "lat": "52.23300",
                "lng": "-78.49900",
                "col_area": "83744.8",
                "project_id": 1,
                "col_type": "column",
                "refs": [
                    2
                ]
            },
            {
                "col_id": 791,
                "col_name": "Sudbury",
                "col_group": "Canadian Shield",
                "col_group_id": 21,
                "group_col_id": "44.00",
                "lat": "46.48500",
                "lng": "-80.98500",
                "col_area": "16011.4",
                "project_id": 1,
                "col_type": "column",
                "refs": [
                    2
                ]
            },
            {
                "col_id": 792,
                "col_name": "Espanola",
                "col_group": "Canadian Shield",
                "col_group_id": 21,
                "group_col_id": "45.00",
                "lat": "46.24700",
                "lng": "-81.76600",
                "col_area": "9905.0",
                "project_id": 1,
                "col_type": "column",
                "refs": [
                    2
                ]
            },
            {
                "col_id": 797,
                "col_name": "Wabush, Mt. Wright",
                "col_group": "Canadian Shield",
                "col_group_id": 21,
                "group_col_id": "50.00",
                "lat": "52.91900",
                "lng": "-66.86900",
                "col_area": "74726.4",
                "project_id": 1,
                "col_type": "column",
                "refs": [
                    2
                ]
            },
            {
                "col_id": 803,
                "col_name": "Paleozoic Outliers: Lake Manicouagan",
                "col_group": "Southeastern Canada",
                "col_group_id": 22,
                "group_col_id": "5.02",
                "lat": "51.35100",
                "lng": "-68.77400",
                "col_area": "131843.4",
                "project_id": 1,
                "col_type": "column",
                "refs": [
                    2
                ]
            },
            {
                "col_id": 804,
                "col_name": "Paleozoic Outliers: Gilmour Lake",
                "col_group": "Southeastern Canada",
                "col_group_id": 22,
                "group_col_id": "5.03",
                "lat": "45.63500",
                "lng": "-75.55200",
                "col_area": "3722.7",
                "project_id": 1,
                "col_type": "column",
                "refs": [
                    2
                ]
            },
            {
                "col_id": 807,
                "col_name": "Paleozoic Outliers: Lake Nipissing",
                "col_group": "Southeastern Canada",
                "col_group_id": 22,
                "group_col_id": "6.06",
                "lat": "46.41700",
                "lng": "-79.78000",
                "col_area": "14903.5",
                "project_id": 1,
                "col_type": "column",
                "refs": [
                    2
                ]
            },
            {
                "col_id": 809,
                "col_name": "Rockingham & Augusta Counties, Virginia - East of North Mtn Fault",
                "col_group": "Northern Appalachians",
                "col_group_id": 9,
                "group_col_id": "6.01",
                "lat": "38.23100",
                "lng": "-78.93500",
                "col_area": "4063.7",
                "project_id": 1,
                "col_type": "column",
                "refs": [
                    1
                ]
            },
            {
                "col_id": 810,
                "col_name": "Northeast Valley & Ridge, Virginia - East of North Mtn Fault",
                "col_group": "Northern Appalachians",
                "col_group_id": 9,
                "group_col_id": "11.01",
                "lat": "38.90100",
                "lng": "-78.29200",
                "col_area": "3479.2",
                "project_id": 1,
                "col_type": "column",
                "refs": [
                    1
                ]
            },
            {
                "col_id": 825,
                "col_name": "Salton Trough, Split Mountain",
                "col_group": "Southern California",
                "col_group_id": 18,
                "group_col_id": "31.00",
                "lat": "32.96100",
                "lng": "-116.00200",
                "col_area": "12531.7",
                "project_id": 1,
                "col_type": "column",
                "refs": [
                    4
                ]
            },
            {
                "col_id": 1191,
                "col_name": "Hispaniola Massif du Nord/Cordillera Central/Oriental",
                "col_group": "Caribbean Islands",
                "col_group_id": 27,
                "group_col_id": "17.00",
                "lat": "19.13000",
                "lng": "-71.04100",
                "col_area": "18116.7",
                "project_id": 7,
                "col_type": "column",
                "refs": [
                    6
                ]
            },
            {
                "col_id": 1197,
                "col_name": "North and Northwestern Puerto Rico",
                "col_group": "Caribbean Islands",
                "col_group_id": 27,
                "group_col_id": "20.00",
                "lat": "18.35200",
                "lng": "-66.87600",
                "col_area": "6613.6",
                "project_id": 7,
                "col_type": "column",
                "refs": [
                    6
                ]
            },
            {
                "col_id": 1230,
                "col_name": "La Orchilla",
                "col_group": "Caribbean Islands",
                "col_group_id": 27,
                "group_col_id": "56.00",
                "lat": "11.80000",
                "lng": "-66.12800",
                "col_area": "112.3",
                "project_id": 7,
                "col_type": "column",
                "refs": [
                    6
                ]
            },
            {
                "col_id": 1259,
                "col_name": "Northwestern and South Central Costa Rica",
                "col_group": "Caribbean Mainland",
                "col_group_id": 29,
                "group_col_id": "44.00",
                "lat": "10.07400",
                "lng": "-84.82100",
                "col_area": "34550.3",
                "project_id": 7,
                "col_type": "column",
                "refs": [
                    6
                ]
            },
            {
                "col_id": 1261,
                "col_name": "Central Valley of Costa Rica",
                "col_group": "Caribbean Mainland",
                "col_group_id": 29,
                "group_col_id": "45.00",
                "lat": "10.00400",
                "lng": "-84.21400",
                "col_area": "15758.4",
                "project_id": 7,
                "col_type": "column",
                "refs": [
                    6
                ]
            },
            {
                "col_id": 1431,
                "col_name": "Sierra de Chiapas",
                "col_group": "Mexico",
                "col_group_id": 35,
                "group_col_id": "3.00",
                "lat": "16.91100",
                "lng": "-91.71000",
                "col_area": "47638.8",
                "project_id": 1,
                "col_type": "column",
                "refs": [
                    9
                ]
            },
            {
                "col_id": 1436,
                "col_name": "St. Elias Mountains, Icefield, Alsek Ranges",
                "col_group": "Canadian Cordillera I",
                "col_group_id": 36,
                "group_col_id": "2.00",
                "lat": "60.81700",
                "lng": "-140.17800",
                "col_area": "19482.6",
                "project_id": 1,
                "col_type": "column",
                "refs": [
                    10
                ]
            },
            {
                "col_id": 1437,
                "col_name": "St. Elias Mountains, Kluane Ranges",
                "col_group": "Canadian Cordillera I",
                "col_group_id": 36,
                "group_col_id": "3.00",
                "lat": "61.03300",
                "lng": "-138.83200",
                "col_area": "22103.3",
                "project_id": 1,
                "col_type": "column",
                "refs": [
                    10
                ]
            },
            {
                "col_id": 1438,
                "col_name": "Queen Charlotte Islands",
                "col_group": "Canadian Cordillera I",
                "col_group_id": 36,
                "group_col_id": "4.00",
                "lat": "53.14200",
                "lng": "-132.19300",
                "col_area": "32372.6",
                "project_id": 1,
                "col_type": "column",
                "refs": [
                    10
                ]
            },
            {
                "col_id": 1439,
                "col_name": "N. Vancouver Island and Continental Shelf",
                "col_group": "Canadian Cordillera I",
                "col_group_id": 36,
                "group_col_id": "5.00",
                "lat": "50.60600",
                "lng": "-128.06500",
                "col_area": "42794.1",
                "project_id": 1,
                "col_type": "column",
                "refs": [
                    10
                ]
            },
            {
                "col_id": 1440,
                "col_name": "W. and SW Vancouver Island and Tofino Basin",
                "col_group": "Canadian Cordillera I",
                "col_group_id": 36,
                "group_col_id": "6.00",
                "lat": "48.60500",
                "lng": "-124.61300",
                "col_area": "15161.4",
                "project_id": 1,
                "col_type": "column",
                "refs": [
                    10
                ]
            },
            {
                "col_id": 1441,
                "col_name": "Central and Southeast Vancouver Island",
                "col_group": "Canadian Cordillera I",
                "col_group_id": 36,
                "group_col_id": "7.00",
                "lat": "49.15700",
                "lng": "-124.20400",
                "col_area": "18880.9",
                "project_id": 1,
                "col_type": "column",
                "refs": [
                    10
                ]
            },
            {
                "col_id": 1442,
                "col_name": "St. Elias Mountains, Icefield and Alsek Ranges",
                "col_group": "Canadian Cordillera I",
                "col_group_id": 36,
                "group_col_id": "8.00",
                "lat": "60.04000",
                "lng": "-137.42000",
                "col_area": "14164.1",
                "project_id": 1,
                "col_type": "column",
                "refs": [
                    10
                ]
            },
            {
                "col_id": 1443,
                "col_name": "Coast Mountains, 54-55 degrees N West of Work Channel",
                "col_group": "Canadian Cordillera I",
                "col_group_id": 36,
                "group_col_id": "9.00",
                "lat": "54.49700",
                "lng": "-129.96400",
                "col_area": "42836.9",
                "project_id": 1,
                "col_type": "column",
                "refs": [
                    10
                ]
            },
            {
                "col_id": 1444,
                "col_name": "Pemberton Bute",
                "col_group": "Canadian Cordillera I",
                "col_group_id": 36,
                "group_col_id": "11.00",
                "lat": "49.77200",
                "lng": "-122.65500",
                "col_area": "12823.1",
                "project_id": 1,
                "col_type": "column",
                "refs": [
                    10
                ]
            },
            {
                "col_id": 1445,
                "col_name": "Hope (W), N. of Fraser R.",
                "col_group": "Canadian Cordillera I",
                "col_group_id": 36,
                "group_col_id": "12.00",
                "lat": "49.41000",
                "lng": "-121.49300",
                "col_area": "7531.3",
                "project_id": 1,
                "col_type": "column",
                "refs": [
                    10
                ]
            },
            {
                "col_id": 1447,
                "col_name": "Homathko River",
                "col_group": "Canadian Cordillera I",
                "col_group_id": 36,
                "group_col_id": "14.00",
                "lat": "51.31300",
                "lng": "-124.84000",
                "col_area": "45051.7",
                "project_id": 1,
                "col_type": "column",
                "refs": [
                    10
                ]
            },
            {
                "col_id": 1450,
                "col_name": "Bridge River",
                "col_group": "Canadian Cordillera I",
                "col_group_id": 36,
                "group_col_id": "17.00",
                "lat": "50.72300",
                "lng": "-121.95300",
                "col_area": "7349.5",
                "project_id": 1,
                "col_type": "column",
                "refs": [
                    10
                ]
            },
            {
                "col_id": 1451,
                "col_name": "Manning Park",
                "col_group": "Canadian Cordillera I",
                "col_group_id": 36,
                "group_col_id": "18.00",
                "lat": "49.06500",
                "lng": "-120.78200",
                "col_area": "14204.5",
                "project_id": 1,
                "col_type": "column",
                "refs": [
                    10
                ]
            },
            {
                "col_id": 1452,
                "col_name": "Aishihik Lake",
                "col_group": "Canadian Cordillera I",
                "col_group_id": 36,
                "group_col_id": "19.00",
                "lat": "61.45400",
                "lng": "-137.17000",
                "col_area": "17586.2",
                "project_id": 1,
                "col_type": "column",
                "refs": [
                    10
                ]
            },
            {
                "col_id": 1453,
                "col_name": "N. Carmacks",
                "col_group": "Canadian Cordillera I",
                "col_group_id": 36,
                "group_col_id": "20.00",
                "lat": "62.13500",
                "lng": "-136.21600",
                "col_area": "23973.9",
                "project_id": 1,
                "col_type": "column",
                "refs": [
                    10
                ]
            },
            {
                "col_id": 1454,
                "col_name": "Laberge",
                "col_group": "Canadian Cordillera I",
                "col_group_id": 36,
                "group_col_id": "21.00",
                "lat": "61.42600",
                "lng": "-134.99000",
                "col_area": "14274.3",
                "project_id": 1,
                "col_type": "column",
                "refs": [
                    10
                ]
            },
            {
                "col_id": 1455,
                "col_name": "Taku River",
                "col_group": "Canadian Cordillera I",
                "col_group_id": 36,
                "group_col_id": "22.00",
                "lat": "58.58000",
                "lng": "-133.63800",
                "col_area": "15383.1",
                "project_id": 1,
                "col_type": "column",
                "refs": [
                    10
                ]
            },
            {
                "col_id": 1457,
                "col_name": "Cold Fish",
                "col_group": "Canadian Cordillera I",
                "col_group_id": 36,
                "group_col_id": "24.00",
                "lat": "57.91300",
                "lng": "-129.36800",
                "col_area": "30066.5",
                "project_id": 1,
                "col_type": "column",
                "refs": [
                    10
                ]
            },
            {
                "col_id": 1459,
                "col_name": "Coast Mountains, 54-55 degrees N East of Work Channel",
                "col_group": "Canadian Cordillera I",
                "col_group_id": 36,
                "group_col_id": "26.00",
                "lat": "54.51300",
                "lng": "-128.86000",
                "col_area": "24919.5",
                "project_id": 1,
                "col_type": "column",
                "refs": [
                    10
                ]
            },
            {
                "col_id": 1460,
                "col_name": "Whitesail Lake",
                "col_group": "Canadian Cordillera I",
                "col_group_id": 36,
                "group_col_id": "27.00",
                "lat": "53.50400",
                "lng": "-126.97600",
                "col_area": "55658.1",
                "project_id": 1,
                "col_type": "column",
                "refs": [
                    10
                ]
            },
            {
                "col_id": 1461,
                "col_name": "Smithers Terrace",
                "col_group": "Canadian Cordillera I",
                "col_group_id": 36,
                "group_col_id": "28.00",
                "lat": "55.04500",
                "lng": "-127.98700",
                "col_area": "12789.2",
                "project_id": 1,
                "col_type": "column",
                "refs": [
                    10
                ]
            },
            {
                "col_id": 1462,
                "col_name": "Fraser",
                "col_group": "Canadian Cordillera I",
                "col_group_id": 36,
                "group_col_id": "29.00",
                "lat": "52.11600",
                "lng": "-122.38900",
                "col_area": "16556.0",
                "project_id": 1,
                "col_type": "column",
                "refs": [
                    10
                ]
            },
            {
                "col_id": 1463,
                "col_name": "Nakina Lake",
                "col_group": "Canadian Cordillera I",
                "col_group_id": 36,
                "group_col_id": "30.00",
                "lat": "59.25800",
                "lng": "-133.27200",
                "col_area": "15842.3",
                "project_id": 1,
                "col_type": "column",
                "refs": [
                    10
                ]
            },
            {
                "col_id": 1464,
                "col_name": "Dease Lake",
                "col_group": "Canadian Cordillera II",
                "col_group_id": 37,
                "group_col_id": "31.00",
                "lat": "58.62100",
                "lng": "-131.82300",
                "col_area": "13477.4",
                "project_id": 1,
                "col_type": "column",
                "refs": [
                    10
                ]
            },
            {
                "col_id": 1465,
                "col_name": "Cache Creek",
                "col_group": "Canadian Cordillera II",
                "col_group_id": 37,
                "group_col_id": "32.00",
                "lat": "50.82900",
                "lng": "-121.35400",
                "col_area": "10086.3",
                "project_id": 1,
                "col_type": "column",
                "refs": [
                    10
                ]
            },
            {
                "col_id": 1466,
                "col_name": "Jennings River",
                "col_group": "Canadian Cordillera II",
                "col_group_id": 37,
                "group_col_id": "33.00",
                "lat": "58.69300",
                "lng": "-130.75000",
                "col_area": "16124.4",
                "project_id": 1,
                "col_type": "column",
                "refs": [
                    10
                ]
            },
            {
                "col_id": 1467,
                "col_name": "Fort St. James",
                "col_group": "Canadian Cordillera II",
                "col_group_id": 37,
                "group_col_id": "34.00",
                "lat": "56.41300",
                "lng": "-125.79400",
                "col_area": "29414.2",
                "project_id": 1,
                "col_type": "column",
                "refs": [
                    10
                ]
            },
            {
                "col_id": 1468,
                "col_name": "Prince George",
                "col_group": "Canadian Cordillera II",
                "col_group_id": 37,
                "group_col_id": "35.00",
                "lat": "53.52800",
                "lng": "-122.60100",
                "col_area": "48087.1",
                "project_id": 1,
                "col_type": "column",
                "refs": [
                    10
                ]
            },
            {
                "col_id": 1469,
                "col_name": "Kamloops Nicola",
                "col_group": "Canadian Cordillera II",
                "col_group_id": 37,
                "group_col_id": "36.00",
                "lat": "50.67600",
                "lng": "-120.34100",
                "col_area": "13841.7",
                "project_id": 1,
                "col_type": "column",
                "refs": [
                    10
                ]
            },
            {
                "col_id": 1470,
                "col_name": "South Okanagan",
                "col_group": "Canadian Cordillera II",
                "col_group_id": 37,
                "group_col_id": "37.00",
                "lat": "49.19600",
                "lng": "-119.35200",
                "col_area": "31190.6",
                "project_id": 1,
                "col_type": "column",
                "refs": [
                    10
                ]
            },
            {
                "col_id": 1471,
                "col_name": "Nelson (W), S. Kootenay Arc",
                "col_group": "Canadian Cordillera II",
                "col_group_id": 37,
                "group_col_id": "38.00",
                "lat": "49.26200",
                "lng": "-117.53200",
                "col_area": "21676.7",
                "project_id": 1,
                "col_type": "column",
                "refs": [
                    10
                ]
            },
            {
                "col_id": 1472,
                "col_name": "Nelson (E) Lardeau, Central Kootenay Arc",
                "col_group": "Canadian Cordillera II",
                "col_group_id": 37,
                "group_col_id": "39.00",
                "lat": "50.44900",
                "lng": "-117.53700",
                "col_area": "18034.8",
                "project_id": 1,
                "col_type": "column",
                "refs": [
                    10
                ]
            },
            {
                "col_id": 1477,
                "col_name": "Anvil Range",
                "col_group": "Canadian Cordillera II",
                "col_group_id": 37,
                "group_col_id": "55.00",
                "lat": "62.78000",
                "lng": "-134.21500",
                "col_area": "28297.5",
                "project_id": 1,
                "col_type": "column",
                "refs": [
                    10
                ]
            },
            {
                "col_id": 1478,
                "col_name": "Campbell Range",
                "col_group": "Canadian Cordillera II",
                "col_group_id": 37,
                "group_col_id": "56.00",
                "lat": "61.46900",
                "lng": "-130.61700",
                "col_area": "19764.3",
                "project_id": 1,
                "col_type": "column",
                "refs": [
                    10
                ]
            },
            {
                "col_id": 1480,
                "col_name": "Logan Mountains",
                "col_group": "Canadian Cordillera II",
                "col_group_id": 37,
                "group_col_id": "58.00",
                "lat": "62.60400",
                "lng": "-129.40400",
                "col_area": "16456.6",
                "project_id": 1,
                "col_type": "column",
                "refs": [
                    10
                ]
            },
            {
                "col_id": 1484,
                "col_name": "Big Salmon Range",
                "col_group": "Canadian Cordillera III",
                "col_group_id": 40,
                "group_col_id": "66.00",
                "lat": "61.03100",
                "lng": "-133.19900",
                "col_area": "21183.6",
                "project_id": 1,
                "col_type": "column",
                "refs": [
                    10
                ]
            },
            {
                "col_id": 1485,
                "col_name": "Lapie River",
                "col_group": "Canadian Cordillera III",
                "col_group_id": 40,
                "group_col_id": "67.00",
                "lat": "61.15500",
                "lng": "-131.57100",
                "col_area": "22862.6",
                "project_id": 1,
                "col_type": "column",
                "refs": [
                    10
                ]
            },
            {
                "col_id": 1486,
                "col_name": "McDame",
                "col_group": "Canadian Cordillera III",
                "col_group_id": 40,
                "group_col_id": "68.00",
                "lat": "58.92000",
                "lng": "-129.23000",
                "col_area": "13116.8",
                "project_id": 1,
                "col_type": "column",
                "refs": [
                    10
                ]
            },
            {
                "col_id": 1492,
                "col_name": "Adams Lake",
                "col_group": "Canadian Cordillera III",
                "col_group_id": 40,
                "group_col_id": "77.00",
                "lat": "51.46600",
                "lng": "-119.91100",
                "col_area": "22184.9",
                "project_id": 1,
                "col_type": "column",
                "refs": [
                    10
                ]
            },
            {
                "col_id": 1493,
                "col_name": "Cariboo Lake",
                "col_group": "Canadian Cordillera III",
                "col_group_id": 40,
                "group_col_id": "78.00",
                "lat": "52.51200",
                "lng": "-121.11300",
                "col_area": "12013.2",
                "project_id": 1,
                "col_type": "column",
                "refs": [
                    10
                ]
            },
            {
                "col_id": 1494,
                "col_name": "Cariboo Lake",
                "col_group": "Canadian Cordillera III",
                "col_group_id": 40,
                "group_col_id": "79.00",
                "lat": "53.11400",
                "lng": "-120.90900",
                "col_area": "13944.9",
                "project_id": 1,
                "col_type": "column",
                "refs": [
                    10
                ]
            },
            {
                "col_id": 1496,
                "col_name": "Seymour Arm Golden",
                "col_group": "Canadian Cordillera III",
                "col_group_id": 40,
                "group_col_id": "84.00",
                "lat": "50.99600",
                "lng": "-117.11600",
                "col_area": "9518.6",
                "project_id": 1,
                "col_type": "column",
                "refs": [
                    10
                ]
            },
            {
                "col_id": 1500,
                "col_name": "Coast Mountains",
                "col_group": "Canadian Cordillera I",
                "col_group_id": 36,
                "group_col_id": "10.00",
                "lat": "60.58300",
                "lng": "-135.82600",
                "col_area": "12459.2",
                "project_id": 1,
                "col_type": "column",
                "refs": [
                    10
                ]
            },
            {
                "col_id": 1504,
                "col_name": "Victorian and Stefansson Islands",
                "col_group": "Canadian Arctic I",
                "col_group_id": 41,
                "group_col_id": "4.00",
                "lat": "70.88900",
                "lng": "-109.57500",
                "col_area": "144599.2",
                "project_id": 1,
                "col_type": "column",
                "refs": [
                    11
                ]
            },
            {
                "col_id": 1507,
                "col_name": "Somerset Island",
                "col_group": "Canadian Arctic I",
                "col_group_id": 41,
                "group_col_id": "7.00",
                "lat": "73.43600",
                "lng": "-94.50300",
                "col_area": "13332.7",
                "project_id": 1,
                "col_type": "column",
                "refs": [
                    11
                ]
            },
            {
                "col_id": 1516,
                "col_name": "Southern Ellesmere Island, Bache Peninsula",
                "col_group": "Canadian Arctic I",
                "col_group_id": 41,
                "group_col_id": "16.00",
                "lat": "79.16200",
                "lng": "-75.35800",
                "col_area": "47945.4",
                "project_id": 1,
                "col_type": "column",
                "refs": [
                    11
                ]
            },
            {
                "col_id": 1567,
                "col_name": "Wootton Peninsula to SE of Milne Inlet",
                "col_group": "Canadian Arctic III",
                "col_group_id": 43,
                "group_col_id": "67.00",
                "lat": "82.29400",
                "lng": "-83.91300",
                "col_area": "4170.9",
                "project_id": 1,
                "col_type": "column",
                "refs": [
                    11
                ]
            },
            {
                "col_id": 1572,
                "col_name": "East of Disraeli Fiord, to Markham Fiord",
                "col_group": "Canadian Arctic III",
                "col_group_id": 43,
                "group_col_id": "72.00",
                "lat": "82.94200",
                "lng": "-72.84200",
                "col_area": "1965.2",
                "project_id": 1,
                "col_type": "column",
                "refs": [
                    11
                ]
            },
            {
                "col_id": 1622,
                "col_name": "Eastern Rocky Mtns, Halfway map area",
                "col_group": "Prairie Provinces and British Columbia",
                "col_group_id": 45,
                "group_col_id": "37.00",
                "lat": "56.30500",
                "lng": "-121.46800",
                "col_area": "12632.5",
                "project_id": 1,
                "col_type": "column",
                "refs": [
                    12
                ]
            },
            {
                "col_id": 1625,
                "col_name": "Hay River Basin, Fort McMurray",
                "col_group": "Prairie Provinces and British Columbia",
                "col_group_id": 45,
                "group_col_id": "40.00",
                "lat": "57.36300",
                "lng": "-111.62900",
                "col_area": "113663.9",
                "project_id": 1,
                "col_type": "column",
                "refs": [
                    12
                ]
            },
            {
                "col_id": 1628,
                "col_name": "Cold Lake",
                "col_group": "Prairie Provinces and British Columbia",
                "col_group_id": 45,
                "group_col_id": "43.00",
                "lat": "54.43200",
                "lng": "-110.30300",
                "col_area": "89686.2",
                "project_id": 1,
                "col_type": "column",
                "refs": [
                    12
                ]
            },
            {
                "col_id": 1671,
                "col_name": "Great Bear Plain - Lac la Martre",
                "col_group": "Northwest, Yukon Territories",
                "col_group_id": 44,
                "group_col_id": "26.00",
                "lat": "63.37800",
                "lng": "-118.83500",
                "col_area": "35447.7",
                "project_id": 1,
                "col_type": "column",
                "refs": [
                    12
                ]
            },
            {
                "col_id": 1675,
                "col_name": "Hay River - Pine Point",
                "col_group": "Northwest, Yukon Territories",
                "col_group_id": 44,
                "group_col_id": "30.00",
                "lat": "60.75600",
                "lng": "-115.39800",
                "col_area": "83663.0",
                "project_id": 1,
                "col_type": "column",
                "refs": [
                    12
                ]
            }
        ],
        "refs": {
            "1": "Childs, O.E. Correlation of stratigraphic units of North America; COSUNA. AAPG Bulletin 69:173-180. 1985. ",
            "2": "Douglas, R.J.W. Geology and economic minerals of Canada. Geological Survey of Canada Economic Geology Report No. 1. 1970. ",
            "4": "Dorsey, R. Stratigraphy, Tectonics, and basin evolution in the Anza-Borrego Desert region. 2005. ",
            "6": "Maurrasse, F.J-M.R. Stratigraphic chart for the circum-Caribbean region. Volume H, The Geology of North America. 1986. ",
            "9": "Salvador, A. and Muneton, J.M.Q. Stratigraphic Correlation Chart: Gulf of Mexico Basin.  In Salvador, A. (ed).  The Geology of North America Vol. J: The Gulf of Mexico Basin.  Geological Society of America, Boulder, Colo. 1989. ",
            "10": "H. Gabrielse and A.J. Brookfield. Correlation chart for the Canadian Cordiellera. 1988. ",
            "11": "Trettin, H.P. Geotectonic correlation chart. in Geological Survey of Canada, Geology of Canada No. 3. 1991. ",
            "12": "Stott, D.F. Geotectonic correlation charts. in Sedimentary Cover of the North American craton: Canada. GSC Geology of Canada No. 5. 1991. "
        }
    }
}