{
    "success": {
        "v": 2,
        "license": "CC-BY 4.0",
        "data": [
            {
                "col_id": 2,
                "col_name": "Madison Co, Alabama",
                "col_group": "Southern Appalachians",
                "col_group_id": 17,
                "group_col_id": "1.00",
                "lat": "34.85300",
                "lng": "-86.56200",
                "col_area": "6345.4",
                "project_id": 1,
                "col_type": "column",
                "refs": [
                    1
                ]
            },
            {
                "col_id": 3,
                "col_name": "Jackson County, Alabama",
                "col_group": "Southern Appalachians",
                "col_group_id": 17,
                "group_col_id": "2.00",
                "lat": "34.83200",
                "lng": "-85.78200",
                "col_area": "4134.0",
                "project_id": 1,
                "col_type": "column",
                "refs": [
                    1
                ]
            },
            {
                "col_id": 4,
                "col_name": "Blount County, Alabama",
                "col_group": "Southern Appalachians",
                "col_group_id": 17,
                "group_col_id": "3.00",
                "lat": "33.99800",
                "lng": "-86.55000",
                "col_area": "2726.5",
                "project_id": 1,
                "col_type": "column",
                "refs": [
                    1
                ]
            },
            {
                "col_id": 5,
                "col_name": "Dekalb & Western Etowah Counties, Alabama",
                "col_group": "Southern Appalachians",
                "col_group_id": 17,
                "group_col_id": "4.00",
                "lat": "34.35400",
                "lng": "-86.07900",
                "col_area": "3339.3",
                "project_id": 1,
                "col_type": "column",
                "refs": [
                    1
                ]
            },
            {
                "col_id": 6,
                "col_name": "Western Valley & Ridge, Northern Segment, Alabama",
                "col_group": "Southern Appalachians",
                "col_group_id": 17,
                "group_col_id": "5.00",
                "lat": "34.20900",
                "lng": "-85.59900",
                "col_area": "3863.2",
                "project_id": 1,
                "col_type": "column",
                "refs": [
                    1
                ]
            },
            {
                "col_id": 7,
                "col_name": "Eastern Valley and Ridge, Northern Segment, Alabama",
                "col_group": "Southern Appalachians",
                "col_group_id": 17,
                "group_col_id": "6.00",
                "lat": "33.71700",
                "lng": "-86.15600",
                "col_area": "3708.0",
                "project_id": 1,
                "col_type": "column",
                "refs": [
                    1
                ]
            },
            {
                "col_id": 8,
                "col_name": "Western Valley & Ridge, Southern Segment, Alabama",
                "col_group": "Southern Appalachians",
                "col_group_id": 17,
                "group_col_id": "7.00",
                "lat": "33.66200",
                "lng": "-86.78600",
                "col_area": "4713.7",
                "project_id": 1,
                "col_type": "column",
                "refs": [
                    1
                ]
            },
            {
                "col_id": 9,
                "col_name": "Eastern Valley & Ridge, Southern Segment, Alabama",
                "col_group": "Southern Appalachians",
                "col_group_id": 17,
                "group_col_id": "8.00",
                "lat": "33.16500",
                "lng": "-87.30400",
                "col_area": "17966.6",
                "project_id": 1,
                "col_type": "column",
                "refs": [
                    1
                ]
            },
            {
                "col_id": 10,
                "col_name": "Northwestern Valley & Ridge & Plateau, Georgia",
                "col_group": "Southern Appalachians",
                "col_group_id": 17,
                "group_col_id": "9.00",
                "lat": "34.72500",
                "lng": "-85.30000",
                "col_area": "4813.1",
                "project_id": 1,
                "col_type": "column",
                "refs": [
                    1
                ]
            },
            {
                "col_id": 11,
                "col_name": "Southeastern Valley & Ridge, Georgia",
                "col_group": "Southern Appalachians",
                "col_group_id": 17,
                "group_col_id": "10.00",
                "lat": "34.50300",
                "lng": "-85.00000",
                "col_area": "3954.6",
                "project_id": 1,
                "col_type": "column",
                "refs": [
                    1
                ]
            },
            {
                "col_id": 12,
                "col_name": "Cumberland Plateau & Adjacent Areas, Tennessee",
                "col_group": "Southern Appalachians",
                "col_group_id": 17,
                "group_col_id": "11.00",
                "lat": "36.01100",
                "lng": "-84.92400",
                "col_area": "15407.2",
                "project_id": 1,
                "col_type": "column",
                "refs": [
                    1
                ]
            },
            {
                "col_id": 13,
                "col_name": "Pine Mountain Overthrust & Adjacent Areas, Tennessee",
                "col_group": "Southern Appalachians",
                "col_group_id": 17,
                "group_col_id": "12.00",
                "lat": "36.45000",
                "lng": "-83.57500",
                "col_area": "6650.1",
                "project_id": 1,
                "col_type": "column",
                "refs": [
                    1
                ]
            },
            {
                "col_id": 16,
                "col_name": "Valley & Ridge, Tennessee",
                "col_group": "Southern Appalachians",
                "col_group_id": 17,
                "group_col_id": "13.00",
                "lat": "36.33300",
                "lng": "-83.06600",
                "col_area": "2825.0",
                "project_id": 1,
                "col_type": "column",
                "refs": [
                    1
                ]
            },
            {
                "col_id": 17,
                "col_name": "South-central, Ohio",
                "col_group": "Southern Appalachians",
                "col_group_id": 17,
                "group_col_id": "16.00",
                "lat": "39.39700",
                "lng": "-82.82800",
                "col_area": "13348.1",
                "project_id": 1,
                "col_type": "column",
                "refs": [
                    1
                ]
            },
            {
                "col_id": 18,
                "col_name": "Northeastern Kentucky",
                "col_group": "Southern Appalachians",
                "col_group_id": 17,
                "group_col_id": "17.00",
                "lat": "38.50000",
                "lng": "-83.05000",
                "col_area": "12817.5",
                "project_id": 1,
                "col_type": "column",
                "refs": [
                    1
                ]
            },
            {
                "col_id": 19,
                "col_name": "Eastern Kentucky",
                "col_group": "Southern Appalachians",
                "col_group_id": 17,
                "group_col_id": "18.00",
                "lat": "37.57900",
                "lng": "-83.00100",
                "col_area": "8705.3",
                "project_id": 1,
                "col_type": "column",
                "refs": [
                    1
                ]
            },
            {
                "col_id": 20,
                "col_name": "Southeastern Kentucky: North of Pine Mtn",
                "col_group": "Southern Appalachians",
                "col_group_id": 17,
                "group_col_id": "19.00",
                "lat": "36.98000",
                "lng": "-83.22000",
                "col_area": "4162.6",
                "project_id": 1,
                "col_type": "column",
                "refs": [
                    1
                ]
            },
            {
                "col_id": 21,
                "col_name": "Lee County, Virginia",
                "col_group": "Southern Appalachians",
                "col_group_id": 17,
                "group_col_id": "20.00",
                "lat": "36.73500",
                "lng": "-82.92500",
                "col_area": "2435.6",
                "project_id": 1,
                "col_type": "column",
                "refs": [
                    1
                ]
            },
            {
                "col_id": 22,
                "col_name": "Northern Part Chautauqua Platform",
                "col_group": "Texas-Oklahoma Tectonic Region",
                "col_group_id": 20,
                "group_col_id": "1.00",
                "lat": "36.58300",
                "lng": "-96.43400",
                "col_area": "26764.6",
                "project_id": 1,
                "col_type": "column",
                "refs": [
                    1
                ]
            },
            {
                "col_id": 23,
                "col_name": "Appalachian Plateau, Virginia",
                "col_group": "Southern Appalachians",
                "col_group_id": 17,
                "group_col_id": "21.00",
                "lat": "37.30000",
                "lng": "-82.11600",
                "col_area": "5536.0",
                "project_id": 1,
                "col_type": "column",
                "refs": [
                    1
                ]
            },
            {
                "col_id": 24,
                "col_name": "Southern Part Chautauqua Platform",
                "col_group": "Texas-Oklahoma Tectonic Region",
                "col_group_id": 20,
                "group_col_id": "2.00",
                "lat": "35.58300",
                "lng": "-96.24800",
                "col_area": "18076.3",
                "project_id": 1,
                "col_type": "column",
                "refs": [
                    1
                ]
            },
            {
                "col_id": 25,
                "col_name": "Scott and Russell Counties, Virginia",
                "col_group": "Southern Appalachians",
                "col_group_id": 17,
                "group_col_id": "22.00",
                "lat": "36.77800",
                "lng": "-82.35600",
                "col_area": "2889.7",
                "project_id": 1,
                "col_type": "column",
                "refs": [
                    1
                ]
            },
            {
                "col_id": 26,
                "col_name": "Lehigh Basin Portion of Arkoma Basin",
                "col_group": "Texas-Oklahoma Tectonic Region",
                "col_group_id": 20,
                "group_col_id": "3.00",
                "lat": "34.72300",
                "lng": "-96.45800",
                "col_area": "13344.3",
                "project_id": 1,
                "col_type": "column",
                "refs": [
                    1
                ]
            },
            {
                "col_id": 27,
                "col_name": "Washington & Smyth Counties, Virginia: West of Pulaski Fault",
                "col_group": "Southern Appalachians",
                "col_group_id": 17,
                "group_col_id": "23.00",
                "lat": "36.81700",
                "lng": "-81.94400",
                "col_area": "2773.6",
                "project_id": 1,
                "col_type": "column",
                "refs": [
                    1
                ]
            },
            {
                "col_id": 28,
                "col_name": "Western Anticline Belt (southern half), Virginia",
                "col_group": "Southern Appalachians",
                "col_group_id": 17,
                "group_col_id": "24.00",
                "lat": "37.13300",
                "lng": "-81.46600",
                "col_area": "3176.8",
                "project_id": 1,
                "col_type": "column",
                "refs": [
                    1
                ]
            },
            {
                "col_id": 31,
                "col_name": "Eastern Wisconsin",
                "col_group": "Midwestern Basins and Arches",
                "col_group_id": 6,
                "group_col_id": "1.00",
                "lat": "43.73300",
                "lng": "-87.84500",
                "col_area": "27548.8",
                "project_id": 1,
                "col_type": "column",
                "refs": [
                    1
                ]
            },
            {
                "col_id": 32,
                "col_name": "Southern Coal Basin, West Virginia",
                "col_group": "Northern Appalachians",
                "col_group_id": 9,
                "group_col_id": "1.00",
                "lat": "38.00000",
                "lng": "-81.61100",
                "col_area": "10739.4",
                "project_id": 1,
                "col_type": "column",
                "refs": [
                    1
                ]
            },
            {
                "col_id": 33,
                "col_name": "Sioux/Lyons Counties, Iowa",
                "col_group": "Midcontinent",
                "col_group_id": 7,
                "group_col_id": "1.00",
                "lat": "43.26700",
                "lng": "-96.15200",
                "col_area": "8337.9",
                "project_id": 1,
                "col_type": "column",
                "refs": [
                    1
                ]
            },
            {
                "col_id": 37,
                "col_name": "Wythe and Pulaski Counties, Virginia: West of Pulaski Fault",
                "col_group": "Southern Appalachians",
                "col_group_id": 17,
                "group_col_id": "25.00",
                "lat": "37.01800",
                "lng": "-81.23100",
                "col_area": "2729.2",
                "project_id": 1,
                "col_type": "column",
                "refs": [
                    1
                ]
            },
            {
                "col_id": 38,
                "col_name": "Montgomery and Roanoke Counties, Virginia: West of Pulaski Fault",
                "col_group": "Southern Appalachians",
                "col_group_id": 17,
                "group_col_id": "26.00",
                "lat": "37.23800",
                "lng": "-80.55500",
                "col_area": "2426.8",
                "project_id": 1,
                "col_type": "column",
                "refs": [
                    1
                ]
            },
            {
                "col_id": 39,
                "col_name": "Basin Center, West Virginia",
                "col_group": "Northern Appalachians",
                "col_group_id": 9,
                "group_col_id": "2.00",
                "lat": "38.44500",
                "lng": "-80.98600",
                "col_area": "8320.5",
                "project_id": 1,
                "col_type": "column",
                "refs": [
                    1
                ]
            },
            {
                "col_id": 40,
                "col_name": "Southeast Valley & Ridge, West Virginia",
                "col_group": "Northern Appalachians",
                "col_group_id": 9,
                "group_col_id": "3.00",
                "lat": "37.74100",
                "lng": "-80.60800",
                "col_area": "5425.7",
                "project_id": 1,
                "col_type": "column",
                "refs": [
                    1
                ]
            },
            {
                "col_id": 41,
                "col_name": "Highland to Craig County, Virginia",
                "col_group": "Northern Appalachians",
                "col_group_id": 9,
                "group_col_id": "4.00",
                "lat": "38.09200",
                "lng": "-79.77200",
                "col_area": "5738.1",
                "project_id": 1,
                "col_type": "column",
                "refs": [
                    1
                ]
            },
            {
                "col_id": 42,
                "col_name": "Rockbridge & Botetourt Counties, Virginia - West of Pulaski Fault",
                "col_group": "Northern Appalachians",
                "col_group_id": 9,
                "group_col_id": "5.00",
                "lat": "37.52700",
                "lng": "-80.03500",
                "col_area": "2720.5",
                "project_id": 1,
                "col_type": "column",
                "refs": [
                    1
                ]
            },
            {
                "col_id": 43,
                "col_name": "Rockingham & Augusta Counties, Virginia - West of North Mtn Fault",
                "col_group": "Northern Appalachians",
                "col_group_id": 9,
                "group_col_id": "6.00",
                "lat": "38.43800",
                "lng": "-79.15800",
                "col_area": "3578.2",
                "project_id": 1,
                "col_type": "column",
                "refs": [
                    1
                ]
            },
            {
                "col_id": 44,
                "col_name": "Southeastern Ohio",
                "col_group": "Northern Appalachians",
                "col_group_id": 9,
                "group_col_id": "7.00",
                "lat": "39.89400",
                "lng": "-81.76000",
                "col_area": "10930.1",
                "project_id": 1,
                "col_type": "column",
                "refs": [
                    1
                ]
            },
            {
                "col_id": 45,
                "col_name": "Dunkard Basin, West Virginia",
                "col_group": "Northern Appalachians",
                "col_group_id": 9,
                "group_col_id": "8.00",
                "lat": "39.34300",
                "lng": "-80.96100",
                "col_area": "10998.4",
                "project_id": 1,
                "col_type": "column",
                "refs": [
                    1
                ]
            },
            {
                "col_id": 46,
                "col_name": "High Plateau, West Virginia",
                "col_group": "Northern Appalachians",
                "col_group_id": 9,
                "group_col_id": "9.00",
                "lat": "39.14100",
                "lng": "-80.07500",
                "col_area": "9995.4",
                "project_id": 1,
                "col_type": "column",
                "refs": [
                    1
                ]
            },
            {
                "col_id": 47,
                "col_name": "Northeast Valley & Ridge, West Virginia",
                "col_group": "Northern Appalachians",
                "col_group_id": 9,
                "group_col_id": "10.00",
                "lat": "39.04000",
                "lng": "-79.15400",
                "col_area": "4248.9",
                "project_id": 1,
                "col_type": "column",
                "refs": [
                    1
                ]
            },
            {
                "col_id": 50,
                "col_name": "Big Hatchet Mountain Area",
                "col_group": "Southwest Mid-Continent",
                "col_group_id": 19,
                "group_col_id": "4.00",
                "lat": "31.66600",
                "lng": "-108.40000",
                "col_area": "18314.1",
                "project_id": 1,
                "col_type": "column",
                "refs": [
                    1
                ]
            },
            {
                "col_id": 53,
                "col_name": "Black Range",
                "col_group": "Southwest Mid-Continent",
                "col_group_id": 19,
                "group_col_id": "7.00",
                "lat": "33.07500",
                "lng": "-107.50000",
                "col_area": "12271.1",
                "project_id": 1,
                "col_type": "column",
                "refs": [
                    1
                ]
            },
            {
                "col_id": 54,
                "col_name": "Franklin Mountain Cristo Rey Area",
                "col_group": "Southwest Mid-Continent",
                "col_group_id": 19,
                "group_col_id": "8.00",
                "lat": "31.90900",
                "lng": "-106.50200",
                "col_area": "14957.0",
                "project_id": 1,
                "col_type": "column",
                "refs": [
                    1
                ]
            },
            {
                "col_id": 55,
                "col_name": "Organ Mountain Southern San Andres Mountain",
                "col_group": "Southwest Mid-Continent",
                "col_group_id": 19,
                "group_col_id": "9.00",
                "lat": "32.61300",
                "lng": "-106.42100",
                "col_area": "8202.5",
                "project_id": 1,
                "col_type": "column",
                "refs": [
                    1
                ]
            },
            {
                "col_id": 56,
                "col_name": "Northeast Valley & Ridge, Virginia - West of North Mtn Fault",
                "col_group": "Northern Appalachians",
                "col_group_id": 9,
                "group_col_id": "11.00",
                "lat": "39.08300",
                "lng": "-78.50400",
                "col_area": "3062.9",
                "project_id": 1,
                "col_type": "column",
                "refs": [
                    1
                ]
            },
            {
                "col_id": 57,
                "col_name": "Sierra Diablo",
                "col_group": "Southwest Mid-Continent",
                "col_group_id": 19,
                "group_col_id": "10.00",
                "lat": "31.37700",
                "lng": "-105.04600",
                "col_area": "29008.3",
                "project_id": 1,
                "col_type": "column",
                "refs": [
                    1
                ]
            },
            {
                "col_id": 58,
                "col_name": "Marathon - Big Bend Region",
                "col_group": "Southwest Mid-Continent",
                "col_group_id": 19,
                "group_col_id": "11.00",
                "lat": "29.58500",
                "lng": "-103.36600",
                "col_area": "29165.6",
                "project_id": 1,
                "col_type": "column",
                "refs": [
                    1
                ]
            },
            {
                "col_id": 59,
                "col_name": "Glass Mountain Marathon Region",
                "col_group": "Southwest Mid-Continent",
                "col_group_id": 19,
                "group_col_id": "12.00",
                "lat": "30.45200",
                "lng": "-103.00200",
                "col_area": "24602.3",
                "project_id": 1,
                "col_type": "column",
                "refs": [
                    1
                ]
            },
            {
                "col_id": 63,
                "col_name": "Northern San Andres Mountains",
                "col_group": "Southwest Mid-Continent",
                "col_group_id": 19,
                "group_col_id": "16.00",
                "lat": "33.23500",
                "lng": "-106.64200",
                "col_area": "6605.0",
                "project_id": 1,
                "col_type": "column",
                "refs": [
                    1
                ]
            },
            {
                "col_id": 66,
                "col_name": "Delaware Basin",
                "col_group": "Southwest Mid-Continent",
                "col_group_id": 19,
                "group_col_id": "19.00",
                "lat": "31.47200",
                "lng": "-103.15300",
                "col_area": "18152.0",
                "project_id": 1,
                "col_type": "column",
                "refs": [
                    1
                ]
            },
            {
                "col_id": 68,
                "col_name": "Midland Basin",
                "col_group": "Southwest Mid-Continent",
                "col_group_id": 19,
                "group_col_id": "21.00",
                "lat": "31.70600",
                "lng": "-101.77500",
                "col_area": "20931.7",
                "project_id": 1,
                "col_type": "column",
                "refs": [
                    1
                ]
            },
            {
                "col_id": 69,
                "col_name": "Eastern Shelf",
                "col_group": "Southwest Mid-Continent",
                "col_group_id": 19,
                "group_col_id": "22.00",
                "lat": "31.90800",
                "lng": "-100.61600",
                "col_area": "27463.0",
                "project_id": 1,
                "col_type": "column",
                "refs": [
                    1
                ]
            },
            {
                "col_id": 71,
                "col_name": "Western Palo Duro Basin",
                "col_group": "Southwest Mid-Continent",
                "col_group_id": 19,
                "group_col_id": "24.00",
                "lat": "34.43300",
                "lng": "-101.83300",
                "col_area": "34829.0",
                "project_id": 1,
                "col_type": "column",
                "refs": [
                    1
                ]
            },
            {
                "col_id": 72,
                "col_name": "Eastern Palo Duro Basin",
                "col_group": "Southwest Mid-Continent",
                "col_group_id": 19,
                "group_col_id": "25.00",
                "lat": "33.73300",
                "lng": "-99.98300",
                "col_area": "35466.3",
                "project_id": 1,
                "col_type": "column",
                "refs": [
                    1
                ]
            },
            {
                "col_id": 74,
                "col_name": "Western Oklahoma",
                "col_group": "Southwest Mid-Continent",
                "col_group_id": 19,
                "group_col_id": "27.00",
                "lat": "35.93600",
                "lng": "-99.25100",
                "col_area": "41760.4",
                "project_id": 1,
                "col_type": "column",
                "refs": [
                    1
                ]
            },
            {
                "col_id": 75,
                "col_name": "Texas Panhandle",
                "col_group": "Southwest Mid-Continent",
                "col_group_id": 19,
                "group_col_id": "28.00",
                "lat": "36.38000",
                "lng": "-100.88600",
                "col_area": "23792.1",
                "project_id": 1,
                "col_type": "column",
                "refs": [
                    1
                ]
            },
            {
                "col_id": 76,
                "col_name": "Hugoton Embayment-kansas",
                "col_group": "Southwest Mid-Continent",
                "col_group_id": 19,
                "group_col_id": "29.00",
                "lat": "37.58300",
                "lng": "-101.28300",
                "col_area": "28648.3",
                "project_id": 1,
                "col_type": "column",
                "refs": [
                    1
                ]
            },
            {
                "col_id": 77,
                "col_name": "Las Animas Arch-colorado",
                "col_group": "Southwest Mid-Continent",
                "col_group_id": 19,
                "group_col_id": "30.00",
                "lat": "38.28300",
                "lng": "-102.56600",
                "col_area": "26870.7",
                "project_id": 1,
                "col_type": "column",
                "refs": [
                    1
                ]
            },
            {
                "col_id": 78,
                "col_name": "Las Animas Arch-kansas",
                "col_group": "Southwest Mid-Continent",
                "col_group_id": 19,
                "group_col_id": "31.00",
                "lat": "39.47600",
                "lng": "-101.17500",
                "col_area": "28375.1",
                "project_id": 1,
                "col_type": "column",
                "refs": [
                    1
                ]
            },
            {
                "col_id": 79,
                "col_name": "Plymouth/Cheeroke Counties, Iowa",
                "col_group": "Midcontinent",
                "col_group_id": 7,
                "group_col_id": "2.00",
                "lat": "42.73800",
                "lng": "-95.85000",
                "col_area": "12599.0",
                "project_id": 1,
                "col_type": "column",
                "refs": [
                    1
                ]
            },
            {
                "col_id": 80,
                "col_name": "Webster County, Iowa",
                "col_group": "Midcontinent",
                "col_group_id": 7,
                "group_col_id": "3.00",
                "lat": "42.51100",
                "lng": "-94.24100",
                "col_area": "21693.3",
                "project_id": 1,
                "col_type": "column",
                "refs": [
                    1
                ]
            },
            {
                "col_id": 81,
                "col_name": "Butler County, Iowa",
                "col_group": "Midcontinent",
                "col_group_id": 7,
                "group_col_id": "4.00",
                "lat": "42.75100",
                "lng": "-92.79800",
                "col_area": "16088.8",
                "project_id": 1,
                "col_type": "column",
                "refs": [
                    1
                ]
            },
            {
                "col_id": 82,
                "col_name": "Linn/Benton Counties, Iowa",
                "col_group": "Midcontinent",
                "col_group_id": 7,
                "group_col_id": "5.00",
                "lat": "42.07000",
                "lng": "-91.82800",
                "col_area": "18972.0",
                "project_id": 1,
                "col_type": "column",
                "refs": [
                    1
                ]
            },
            {
                "col_id": 83,
                "col_name": "Des Moines County, Iowa",
                "col_group": "Midcontinent",
                "col_group_id": 7,
                "group_col_id": "6.00",
                "lat": "40.96600",
                "lng": "-91.17000",
                "col_area": "21391.2",
                "project_id": 1,
                "col_type": "column",
                "refs": [
                    1
                ]
            },
            {
                "col_id": 85,
                "col_name": "Rock County, Nebraska",
                "col_group": "Midcontinent",
                "col_group_id": 7,
                "group_col_id": "8.00",
                "lat": "42.40200",
                "lng": "-99.45100",
                "col_area": "42022.1",
                "project_id": 1,
                "col_type": "column",
                "refs": [
                    1
                ]
            },
            {
                "col_id": 86,
                "col_name": "Stanton County, Nebraska",
                "col_group": "Midcontinent",
                "col_group_id": 7,
                "group_col_id": "9.00",
                "lat": "41.95000",
                "lng": "-97.33300",
                "col_area": "30143.8",
                "project_id": 1,
                "col_type": "column",
                "refs": [
                    1
                ]
            },
            {
                "col_id": 87,
                "col_name": "Sarpy County, Nebraska",
                "col_group": "Midcontinent",
                "col_group_id": 7,
                "group_col_id": "10.00",
                "lat": "41.12300",
                "lng": "-96.09500",
                "col_area": "10282.8",
                "project_id": 1,
                "col_type": "column",
                "refs": [
                    1
                ]
            },
            {
                "col_id": 88,
                "col_name": "Harrison/Pottawattomie Counties, Iowa",
                "col_group": "Midcontinent",
                "col_group_id": 7,
                "group_col_id": "11.00",
                "lat": "41.58200",
                "lng": "-95.62600",
                "col_area": "12516.0",
                "project_id": 1,
                "col_type": "column",
                "refs": [
                    1
                ]
            },
            {
                "col_id": 89,
                "col_name": "Dallas/Madison Counties, Iowa",
                "col_group": "Midcontinent",
                "col_group_id": 7,
                "group_col_id": "12.00",
                "lat": "41.54300",
                "lng": "-94.03100",
                "col_area": "19038.3",
                "project_id": 1,
                "col_type": "column",
                "refs": [
                    1
                ]
            },
            {
                "col_id": 90,
                "col_name": "Appanoose County, Iowa",
                "col_group": "Midcontinent",
                "col_group_id": 7,
                "group_col_id": "13.00",
                "lat": "40.72100",
                "lng": "-92.91300",
                "col_area": "28777.4",
                "project_id": 1,
                "col_type": "column",
                "refs": [
                    1
                ]
            },
            {
                "col_id": 91,
                "col_name": "Marion County, Missouri",
                "col_group": "Midcontinent",
                "col_group_id": 7,
                "group_col_id": "14.00",
                "lat": "39.82800",
                "lng": "-91.62500",
                "col_area": "16719.8",
                "project_id": 1,
                "col_type": "column",
                "refs": [
                    1
                ]
            },
            {
                "col_id": 93,
                "col_name": "Ellis/trego Counties, Kansas",
                "col_group": "Midcontinent",
                "col_group_id": 7,
                "group_col_id": "16.00",
                "lat": "38.92800",
                "lng": "-99.59500",
                "col_area": "23182.1",
                "project_id": 1,
                "col_type": "column",
                "refs": [
                    1
                ]
            },
            {
                "col_id": 98,
                "col_name": "Northern Arctic National Wildlife Refuge",
                "col_group": "Northern Alaska",
                "col_group_id": 8,
                "group_col_id": "6.00",
                "lat": "69.79300",
                "lng": "-143.47900",
                "col_area": "14144.5",
                "project_id": 1,
                "col_type": "column",
                "refs": [
                    1
                ]
            },
            {
                "col_id": 99,
                "col_name": "Mitchell County, Kansas",
                "col_group": "Midcontinent",
                "col_group_id": 7,
                "group_col_id": "17.00",
                "lat": "39.44800",
                "lng": "-98.24900",
                "col_area": "31959.9",
                "project_id": 1,
                "col_type": "column",
                "refs": [
                    1
                ]
            },
            {
                "col_id": 100,
                "col_name": "Pottawotomie County, Kansas",
                "col_group": "Midcontinent",
                "col_group_id": 7,
                "group_col_id": "18.00",
                "lat": "39.36000",
                "lng": "-96.60000",
                "col_area": "15671.5",
                "project_id": 1,
                "col_type": "column",
                "refs": [
                    1
                ]
            },
            {
                "col_id": 101,
                "col_name": "Jackson County, Kansas",
                "col_group": "Midcontinent",
                "col_group_id": 7,
                "group_col_id": "19.00",
                "lat": "39.44600",
                "lng": "-95.77300",
                "col_area": "18752.7",
                "project_id": 1,
                "col_type": "column",
                "refs": [
                    1
                ]
            },
            {
                "col_id": 103,
                "col_name": "Atchinson County, Missouri",
                "col_group": "Midcontinent",
                "col_group_id": 7,
                "group_col_id": "21.00",
                "lat": "40.43300",
                "lng": "-95.40800",
                "col_area": "19300.6",
                "project_id": 1,
                "col_type": "column",
                "refs": [
                    1
                ]
            },
            {
                "col_id": 105,
                "col_name": "Perry County, Missouri",
                "col_group": "Midcontinent",
                "col_group_id": 7,
                "group_col_id": "23.00",
                "lat": "37.71900",
                "lng": "-89.86600",
                "col_area": "31312.4",
                "project_id": 1,
                "col_type": "column",
                "refs": [
                    1
                ]
            },
            {
                "col_id": 106,
                "col_name": "Stafford County, Kansas",
                "col_group": "Midcontinent",
                "col_group_id": 7,
                "group_col_id": "24.00",
                "lat": "38.20000",
                "lng": "-98.70700",
                "col_area": "18981.6",
                "project_id": 1,
                "col_type": "column",
                "refs": [
                    1
                ]
            },
            {
                "col_id": 107,
                "col_name": "Kingman County, Kansas",
                "col_group": "Midcontinent",
                "col_group_id": 7,
                "group_col_id": "25.00",
                "lat": "37.43600",
                "lng": "-98.23100",
                "col_area": "24147.3",
                "project_id": 1,
                "col_type": "column",
                "refs": [
                    1
                ]
            },
            {
                "col_id": 108,
                "col_name": "Butler County, Kansas",
                "col_group": "Midcontinent",
                "col_group_id": 7,
                "group_col_id": "26.00",
                "lat": "37.76600",
                "lng": "-96.75100",
                "col_area": "24896.4",
                "project_id": 1,
                "col_type": "column",
                "refs": [
                    1
                ]
            },
            {
                "col_id": 109,
                "col_name": "Vernon County, Missouri",
                "col_group": "Midcontinent",
                "col_group_id": 7,
                "group_col_id": "27.00",
                "lat": "37.97000",
                "lng": "-94.47800",
                "col_area": "36881.7",
                "project_id": 1,
                "col_type": "column",
                "refs": [
                    1
                ]
            },
            {
                "col_id": 110,
                "col_name": "Barry County, Missouri",
                "col_group": "Midcontinent",
                "col_group_id": 7,
                "group_col_id": "28.00",
                "lat": "36.88600",
                "lng": "-93.85700",
                "col_area": "35317.1",
                "project_id": 1,
                "col_type": "column",
                "refs": [
                    1
                ]
            },
            {
                "col_id": 114,
                "col_name": "Raritan Bay",
                "col_group": "Atlantic Coastal Plain",
                "col_group_id": 1,
                "group_col_id": "3.00",
                "lat": "40.41900",
                "lng": "-74.21700",
                "col_area": "4579.0",
                "project_id": 1,
                "col_type": "column",
                "refs": [
                    1
                ]
            },
            {
                "col_id": 146,
                "col_name": "Lower Santee-Edisto",
                "col_group": "Atlantic Coastal Plain",
                "col_group_id": 1,
                "group_col_id": "37.00",
                "lat": "32.90500",
                "lng": "-79.87200",
                "col_area": "27317.8",
                "project_id": 1,
                "col_type": "column",
                "refs": [
                    1
                ]
            },
            {
                "col_id": 148,
                "col_name": "Mcalester Basin Portion of Arkoma Basin",
                "col_group": "Texas-Oklahoma Tectonic Region",
                "col_group_id": 20,
                "group_col_id": "4.00",
                "lat": "35.07800",
                "lng": "-94.95100",
                "col_area": "23990.7",
                "project_id": 1,
                "col_type": "column",
                "refs": [
                    1
                ]
            },
            {
                "col_id": 151,
                "col_name": "North Central Foothills and Subsurface",
                "col_group": "Northern Alaska",
                "col_group_id": 8,
                "group_col_id": "9.00",
                "lat": "68.88700",
                "lng": "-148.90500",
                "col_area": "19714.1",
                "project_id": 1,
                "col_type": "column",
                "refs": [
                    1
                ]
            },
            {
                "col_id": 152,
                "col_name": "Romanzof - British Mountains",
                "col_group": "Northern Alaska",
                "col_group_id": 8,
                "group_col_id": "10.00",
                "lat": "69.04600",
                "lng": "-142.44600",
                "col_area": "22714.6",
                "project_id": 1,
                "col_type": "column",
                "refs": [
                    1
                ]
            },
            {
                "col_id": 153,
                "col_name": "Nuka Ridge Allochthon",
                "col_group": "Northern Alaska",
                "col_group_id": 8,
                "group_col_id": "11.00",
                "lat": "68.79400",
                "lng": "-159.95600",
                "col_area": "10898.3",
                "project_id": 1,
                "col_type": "column",
                "refs": [
                    1
                ]
            },
            {
                "col_id": 154,
                "col_name": "Ipnavik Allochthon",
                "col_group": "Northern Alaska",
                "col_group_id": 8,
                "group_col_id": "12.00",
                "lat": "68.37400",
                "lng": "-156.70000",
                "col_area": "38626.1",
                "project_id": 1,
                "col_type": "column",
                "refs": [
                    1
                ]
            },
            {
                "col_id": 155,
                "col_name": "Kelly River Allochthon",
                "col_group": "Northern Alaska",
                "col_group_id": 8,
                "group_col_id": "13.00",
                "lat": "68.20900",
                "lng": "-162.72900",
                "col_area": "60407.5",
                "project_id": 1,
                "col_type": "column",
                "refs": [
                    1
                ]
            },
            {
                "col_id": 156,
                "col_name": "Garrett County, Maryland",
                "col_group": "Northern Appalachians",
                "col_group_id": 9,
                "group_col_id": "12.00",
                "lat": "39.56100",
                "lng": "-79.25000",
                "col_area": "5804.1",
                "project_id": 1,
                "col_type": "column",
                "refs": [
                    1
                ]
            },
            {
                "col_id": 157,
                "col_name": "Arkansas Basin Portion of Arkoma Basin",
                "col_group": "Texas-Oklahoma Tectonic Region",
                "col_group_id": 20,
                "group_col_id": "5.00",
                "lat": "35.52500",
                "lng": "-92.89500",
                "col_area": "46089.7",
                "project_id": 1,
                "col_type": "column",
                "refs": [
                    1
                ]
            },
            {
                "col_id": 158,
                "col_name": "Central Southern Oklahoma and Southwestern Oklahoma, Southern Oklahoma Fold",
                "col_group": "Texas-Oklahoma Tectonic Region",
                "col_group_id": 20,
                "group_col_id": "6.00",
                "lat": "34.26100",
                "lng": "-97.49500",
                "col_area": "23283.9",
                "project_id": 1,
                "col_type": "column",
                "refs": [
                    1
                ]
            },
            {
                "col_id": 159,
                "col_name": "Cooke and Grayson Counties, Texas, Southern Oklahoma Folded Belt",
                "col_group": "Texas-Oklahoma Tectonic Region",
                "col_group_id": 20,
                "group_col_id": "7.00",
                "lat": "33.45000",
                "lng": "-96.97100",
                "col_area": "21134.2",
                "project_id": 1,
                "col_type": "column",
                "refs": [
                    1
                ]
            },
            {
                "col_id": 160,
                "col_name": "Bend Arch",
                "col_group": "Texas-Oklahoma Tectonic Region",
                "col_group_id": 20,
                "group_col_id": "8.00",
                "lat": "32.62300",
                "lng": "-99.44500",
                "col_area": "18948.2",
                "project_id": 1,
                "col_type": "column",
                "refs": [
                    1
                ]
            },
            {
                "col_id": 163,
                "col_name": "Llano Uplift",
                "col_group": "Texas-Oklahoma Tectonic Region",
                "col_group_id": 20,
                "group_col_id": "11.00",
                "lat": "31.13300",
                "lng": "-98.74100",
                "col_area": "20869.6",
                "project_id": 1,
                "col_type": "column",
                "refs": [
                    1
                ]
            },
            {
                "col_id": 165,
                "col_name": "Arkansas and Louisiana Portion of Ouachita Tectonic Belt",
                "col_group": "Texas-Oklahoma Tectonic Region",
                "col_group_id": 20,
                "group_col_id": "13.00",
                "lat": "34.26600",
                "lng": "-93.38300",
                "col_area": "33655.5",
                "project_id": 1,
                "col_type": "column",
                "refs": [
                    1
                ]
            },
            {
                "col_id": 166,
                "col_name": "Oklahoma Portion of Ouachita Tectonic Belt",
                "col_group": "Texas-Oklahoma Tectonic Region",
                "col_group_id": 20,
                "group_col_id": "14.00",
                "lat": "34.33300",
                "lng": "-95.45800",
                "col_area": "18744.6",
                "project_id": 1,
                "col_type": "column",
                "refs": [
                    1
                ]
            },
            {
                "col_id": 167,
                "col_name": "Waco Uplift Portion of Ouachita Tectonic Belt",
                "col_group": "Texas-Oklahoma Tectonic Region",
                "col_group_id": 20,
                "group_col_id": "15.00",
                "lat": "31.85000",
                "lng": "-97.11600",
                "col_area": "23759.0",
                "project_id": 1,
                "col_type": "column",
                "refs": [
                    1
                ]
            },
            {
                "col_id": 168,
                "col_name": "Devils River Uplift Portion of Ouachita Tectonic Belt",
                "col_group": "Texas-Oklahoma Tectonic Region",
                "col_group_id": 20,
                "group_col_id": "16.00",
                "lat": "29.65800",
                "lng": "-100.37800",
                "col_area": "28588.3",
                "project_id": 1,
                "col_type": "column",
                "refs": [
                    1
                ]
            },
            {
                "col_id": 169,
                "col_name": "Black Warrior Basin Prentiss County, Mississippi",
                "col_group": "Texas-Oklahoma Tectonic Region",
                "col_group_id": 20,
                "group_col_id": "17.00",
                "lat": "34.63300",
                "lng": "-88.54100",
                "col_area": "19764.8",
                "project_id": 1,
                "col_type": "column",
                "refs": [
                    1
                ]
            },
            {
                "col_id": 170,
                "col_name": "Black Warrior Basin Oktibbeha County, Mississippi",
                "col_group": "Texas-Oklahoma Tectonic Region",
                "col_group_id": 20,
                "group_col_id": "18.00",
                "lat": "33.44500",
                "lng": "-88.87500",
                "col_area": "19926.0",
                "project_id": 1,
                "col_type": "column",
                "refs": [
                    1
                ]
            },
            {
                "col_id": 171,
                "col_name": "Black Warrior Basin Cullman County, Alabama",
                "col_group": "Texas-Oklahoma Tectonic Region",
                "col_group_id": 20,
                "group_col_id": "19.00",
                "lat": "34.23000",
                "lng": "-87.02000",
                "col_area": "7606.7",
                "project_id": 1,
                "col_type": "column",
                "refs": [
                    1
                ]
            },
            {
                "col_id": 177,
                "col_name": "Minnehaha County, South Dakota",
                "col_group": "Northern Mid-Continent",
                "col_group_id": 12,
                "group_col_id": "6.00",
                "lat": "43.69000",
                "lng": "-96.64600",
                "col_area": "21138.6",
                "project_id": 1,
                "col_type": "column",
                "refs": [
                    1
                ]
            },
            {
                "col_id": 182,
                "col_name": "West Vermillion District, St. Louis - Lake Counties, Minnesota",
                "col_group": "Northern Mid-Continent",
                "col_group_id": 12,
                "group_col_id": "11.00",
                "lat": "47.88300",
                "lng": "-91.71600",
                "col_area": "22368.4",
                "project_id": 1,
                "col_type": "column",
                "refs": [
                    1
                ]
            },
            {
                "col_id": 187,
                "col_name": "Baraboo District, Sauk County, Wisconsin",
                "col_group": "Northern Mid-Continent",
                "col_group_id": 12,
                "group_col_id": "16.00",
                "lat": "43.23300",
                "lng": "-89.75600",
                "col_area": "18140.9",
                "project_id": 1,
                "col_type": "column",
                "refs": [
                    1
                ]
            },
            {
                "col_id": 196,
                "col_name": "Central Dickinson County, Michigan",
                "col_group": "Northern Mid-Continent",
                "col_group_id": 12,
                "group_col_id": "25.00",
                "lat": "46.03400",
                "lng": "-87.81300",
                "col_area": "11090.3",
                "project_id": 1,
                "col_type": "column",
                "refs": [
                    1
                ]
            },
            {
                "col_id": 200,
                "col_name": "Central Santa Ynez Mountains",
                "col_group": "Southern California",
                "col_group_id": 18,
                "group_col_id": "3.00",
                "lat": "34.52300",
                "lng": "-119.94900",
                "col_area": "8542.3",
                "project_id": 1,
                "col_type": "column",
                "refs": [
                    1
                ]
            },
            {
                "col_id": 201,
                "col_name": "Fillmore",
                "col_group": "Southern California",
                "col_group_id": 18,
                "group_col_id": "4.00",
                "lat": "34.41600",
                "lng": "-118.95800",
                "col_area": "1941.8",
                "project_id": 1,
                "col_type": "column",
                "refs": [
                    1
                ]
            },
            {
                "col_id": 202,
                "col_name": "Oxnard",
                "col_group": "Southern California",
                "col_group_id": 18,
                "group_col_id": "5.00",
                "lat": "34.19900",
                "lng": "-119.18600",
                "col_area": "8364.0",
                "project_id": 1,
                "col_type": "column",
                "refs": [
                    1
                ]
            },
            {
                "col_id": 210,
                "col_name": "Picnic Creek Allochthon",
                "col_group": "Northern Alaska",
                "col_group_id": 8,
                "group_col_id": "14.00",
                "lat": "68.27200",
                "lng": "-159.50800",
                "col_area": "13025.5",
                "project_id": 1,
                "col_type": "column",
                "refs": [
                    1
                ]
            },
            {
                "col_id": 211,
                "col_name": "Western Endicott Allochthon",
                "col_group": "Northern Alaska",
                "col_group_id": 8,
                "group_col_id": "15.00",
                "lat": "68.19800",
                "lng": "-154.41600",
                "col_area": "9780.2",
                "project_id": 1,
                "col_type": "column",
                "refs": [
                    1
                ]
            },
            {
                "col_id": 212,
                "col_name": "Ekokpuk Syncline",
                "col_group": "Northern Alaska",
                "col_group_id": 8,
                "group_col_id": "16.00",
                "lat": "67.75800",
                "lng": "-152.78400",
                "col_area": "13451.4",
                "project_id": 1,
                "col_type": "column",
                "refs": [
                    1
                ]
            },
            {
                "col_id": 213,
                "col_name": "Savioyuk Syncline",
                "col_group": "Northern Alaska",
                "col_group_id": 8,
                "group_col_id": "17.00",
                "lat": "67.48200",
                "lng": "-151.72300",
                "col_area": "13119.1",
                "project_id": 1,
                "col_type": "column",
                "refs": [
                    1
                ]
            },
            {
                "col_id": 232,
                "col_name": "Centerville Beach",
                "col_group": "Northern California",
                "col_group_id": 10,
                "group_col_id": "1.00",
                "lat": "40.55700",
                "lng": "-124.34900",
                "col_area": "5425.8",
                "project_id": 1,
                "col_type": "column",
                "refs": [
                    1
                ]
            },
            {
                "col_id": 234,
                "col_name": "East of Mccloud River",
                "col_group": "Northern California",
                "col_group_id": 10,
                "group_col_id": "3.00",
                "lat": "41.24500",
                "lng": "-121.94300",
                "col_area": "16057.8",
                "project_id": 1,
                "col_type": "column",
                "refs": [
                    1
                ]
            },
            {
                "col_id": 235,
                "col_name": "West of Mccloud River",
                "col_group": "Northern California",
                "col_group_id": 10,
                "group_col_id": "4.00",
                "lat": "41.10800",
                "lng": "-122.55400",
                "col_area": "3938.4",
                "project_id": 1,
                "col_type": "column",
                "refs": [
                    1
                ]
            },
            {
                "col_id": 236,
                "col_name": "Yreka",
                "col_group": "Northern California",
                "col_group_id": 10,
                "group_col_id": "5.00",
                "lat": "41.72300",
                "lng": "-122.63500",
                "col_area": "12799.4",
                "project_id": 1,
                "col_type": "column",
                "refs": [
                    1
                ]
            },
            {
                "col_id": 238,
                "col_name": "North Fork",
                "col_group": "Northern California",
                "col_group_id": 10,
                "group_col_id": "7.00",
                "lat": "40.76100",
                "lng": "-123.15000",
                "col_area": "2018.8",
                "project_id": 1,
                "col_type": "column",
                "refs": [
                    1
                ]
            },
            {
                "col_id": 239,
                "col_name": "Hayfork",
                "col_group": "Northern California",
                "col_group_id": 10,
                "group_col_id": "8.00",
                "lat": "40.57000",
                "lng": "-123.13100",
                "col_area": "4880.4",
                "project_id": 1,
                "col_type": "column",
                "refs": [
                    1
                ]
            },
            {
                "col_id": 240,
                "col_name": "Rattlesnake",
                "col_group": "Northern California",
                "col_group_id": 10,
                "group_col_id": "9.00",
                "lat": "40.74800",
                "lng": "-122.85000",
                "col_area": "2136.6",
                "project_id": 1,
                "col_type": "column",
                "refs": [
                    1
                ]
            },
            {
                "col_id": 242,
                "col_name": "Berkeley Hills",
                "col_group": "Northern California",
                "col_group_id": 10,
                "group_col_id": "18.00",
                "lat": "37.83400",
                "lng": "-122.20400",
                "col_area": "933.7",
                "project_id": 1,
                "col_type": "column",
                "refs": [
                    1
                ]
            },
            {
                "col_id": 243,
                "col_name": "Western Contra Costa County",
                "col_group": "Northern California",
                "col_group_id": 10,
                "group_col_id": "19.00",
                "lat": "37.97600",
                "lng": "-122.31700",
                "col_area": "1540.4",
                "project_id": 1,
                "col_type": "column",
                "refs": [
                    1
                ]
            },
            {
                "col_id": 244,
                "col_name": "Merced River",
                "col_group": "Northern California",
                "col_group_id": 10,
                "group_col_id": "11.00",
                "lat": "37.43800",
                "lng": "-120.57400",
                "col_area": "5456.3",
                "project_id": 1,
                "col_type": "column",
                "refs": [
                    1
                ]
            },
            {
                "col_id": 246,
                "col_name": "Mokelumne River to Placerville Area",
                "col_group": "Northern California",
                "col_group_id": 10,
                "group_col_id": "13.00",
                "lat": "38.50800",
                "lng": "-120.99000",
                "col_area": "5611.7",
                "project_id": 1,
                "col_type": "column",
                "refs": [
                    1
                ]
            },
            {
                "col_id": 247,
                "col_name": "Sonora Area",
                "col_group": "Northern California",
                "col_group_id": 10,
                "group_col_id": "14.00",
                "lat": "38.04900",
                "lng": "-120.33500",
                "col_area": "10635.5",
                "project_id": 1,
                "col_type": "column",
                "refs": [
                    1
                ]
            },
            {
                "col_id": 248,
                "col_name": "Bowman Lake",
                "col_group": "Northern California",
                "col_group_id": 10,
                "group_col_id": "15.00",
                "lat": "39.40500",
                "lng": "-120.68900",
                "col_area": "9100.1",
                "project_id": 1,
                "col_type": "column",
                "refs": [
                    1
                ]
            },
            {
                "col_id": 249,
                "col_name": "Taylorsville",
                "col_group": "Northern California",
                "col_group_id": 10,
                "group_col_id": "16.00",
                "lat": "40.07800",
                "lng": "-120.90400",
                "col_area": "11459.2",
                "project_id": 1,
                "col_type": "column",
                "refs": [
                    1
                ]
            },
            {
                "col_id": 251,
                "col_name": "Mount Diablo North Fork",
                "col_group": "Northern California",
                "col_group_id": 10,
                "group_col_id": "20.00",
                "lat": "37.93900",
                "lng": "-121.93100",
                "col_area": "469.9",
                "project_id": 1,
                "col_type": "column",
                "refs": [
                    1
                ]
            },
            {
                "col_id": 259,
                "col_name": "Northwest",
                "col_group": "Northern California",
                "col_group_id": 10,
                "group_col_id": "28.00",
                "lat": "40.26000",
                "lng": "-122.48000",
                "col_area": "7731.6",
                "project_id": 1,
                "col_type": "column",
                "refs": [
                    1
                ]
            },
            {
                "col_id": 260,
                "col_name": "Putah Creek",
                "col_group": "Northern California",
                "col_group_id": 10,
                "group_col_id": "29.00",
                "lat": "38.53200",
                "lng": "-121.96400",
                "col_area": "5309.7",
                "project_id": 1,
                "col_type": "column",
                "refs": [
                    1
                ]
            },
            {
                "col_id": 271,
                "col_name": "Eastern Endicott Mountains Allochthon",
                "col_group": "Northern Alaska",
                "col_group_id": 8,
                "group_col_id": "18.00",
                "lat": "68.29600",
                "lng": "-151.69500",
                "col_area": "9064.5",
                "project_id": 1,
                "col_type": "column",
                "refs": [
                    1
                ]
            },
            {
                "col_id": 272,
                "col_name": "Mount Doonerak",
                "col_group": "Northern Alaska",
                "col_group_id": 8,
                "group_col_id": "19.00",
                "lat": "67.90700",
                "lng": "-150.63300",
                "col_area": "9718.1",
                "project_id": 1,
                "col_type": "column",
                "refs": [
                    1
                ]
            },
            {
                "col_id": 273,
                "col_name": "Hub Mountain",
                "col_group": "Northern Alaska",
                "col_group_id": 8,
                "group_col_id": "20.00",
                "lat": "67.38900",
                "lng": "-159.92200",
                "col_area": "32917.2",
                "project_id": 1,
                "col_type": "column",
                "refs": [
                    1
                ]
            },
            {
                "col_id": 274,
                "col_name": "Southern Wiseman Quadrangle",
                "col_group": "Northern Alaska",
                "col_group_id": 8,
                "group_col_id": "22.00",
                "lat": "67.04800",
                "lng": "-150.09500",
                "col_area": "20481.2",
                "project_id": 1,
                "col_type": "column",
                "refs": [
                    1
                ]
            },
            {
                "col_id": 288,
                "col_name": "Survey Pass Composite",
                "col_group": "Northern Alaska",
                "col_group_id": 8,
                "group_col_id": "21.00",
                "lat": "67.70700",
                "lng": "-154.90900",
                "col_area": "24727.2",
                "project_id": 1,
                "col_type": "column",
                "refs": [
                    1
                ]
            },
            {
                "col_id": 296,
                "col_name": "Allegany County, Maryland",
                "col_group": "Northern Appalachians",
                "col_group_id": 9,
                "group_col_id": "13.00",
                "lat": "39.67600",
                "lng": "-78.67800",
                "col_area": "5979.3",
                "project_id": 1,
                "col_type": "column",
                "refs": [
                    1
                ]
            },
            {
                "col_id": 297,
                "col_name": "Washington County, Maryland",
                "col_group": "Northern Appalachians",
                "col_group_id": 9,
                "group_col_id": "14.00",
                "lat": "39.69600",
                "lng": "-77.99500",
                "col_area": "4416.3",
                "project_id": 1,
                "col_type": "column",
                "refs": [
                    1
                ]
            },
            {
                "col_id": 298,
                "col_name": "North-central Ohio",
                "col_group": "Northern Appalachians",
                "col_group_id": 9,
                "group_col_id": "15.00",
                "lat": "40.60800",
                "lng": "-82.74100",
                "col_area": "13089.8",
                "project_id": 1,
                "col_type": "column",
                "refs": [
                    1
                ]
            },
            {
                "col_id": 299,
                "col_name": "East-central Ohio",
                "col_group": "Northern Appalachians",
                "col_group_id": 9,
                "group_col_id": "16.00",
                "lat": "40.57700",
                "lng": "-81.29300",
                "col_area": "13232.7",
                "project_id": 1,
                "col_type": "column",
                "refs": [
                    1
                ]
            },
            {
                "col_id": 300,
                "col_name": "Southwestern Pennsylvania",
                "col_group": "Northern Appalachians",
                "col_group_id": 9,
                "group_col_id": "17.00",
                "lat": "40.52800",
                "lng": "-79.56300",
                "col_area": "17251.1",
                "project_id": 1,
                "col_type": "column",
                "refs": [
                    1
                ]
            },
            {
                "col_id": 301,
                "col_name": "South-central Pennsylvania",
                "col_group": "Northern Appalachians",
                "col_group_id": 9,
                "group_col_id": "18.00",
                "lat": "40.29100",
                "lng": "-77.89000",
                "col_area": "12044.4",
                "project_id": 1,
                "col_type": "column",
                "refs": [
                    1
                ]
            },
            {
                "col_id": 302,
                "col_name": "Southeastern Pennsylvania",
                "col_group": "Northern Appalachians",
                "col_group_id": 9,
                "group_col_id": "19.00",
                "lat": "40.21100",
                "lng": "-76.97000",
                "col_area": "9633.2",
                "project_id": 1,
                "col_type": "column",
                "refs": [
                    1
                ]
            },
            {
                "col_id": 303,
                "col_name": "Northeastern Ohio",
                "col_group": "Northern Appalachians",
                "col_group_id": 9,
                "group_col_id": "20.00",
                "lat": "41.30600",
                "lng": "-81.63300",
                "col_area": "18497.6",
                "project_id": 1,
                "col_type": "column",
                "refs": [
                    1
                ]
            },
            {
                "col_id": 304,
                "col_name": "Northwest Pennsylvania",
                "col_group": "Northern Appalachians",
                "col_group_id": 9,
                "group_col_id": "21.00",
                "lat": "41.67300",
                "lng": "-79.29100",
                "col_area": "20215.5",
                "project_id": 1,
                "col_type": "column",
                "refs": [
                    1
                ]
            },
            {
                "col_id": 305,
                "col_name": "North-central Pennsylvania",
                "col_group": "Northern Appalachians",
                "col_group_id": 9,
                "group_col_id": "22.00",
                "lat": "41.64300",
                "lng": "-77.32000",
                "col_area": "20502.5",
                "project_id": 1,
                "col_type": "column",
                "refs": [
                    1
                ]
            },
            {
                "col_id": 306,
                "col_name": "Northeast Pennsylvania",
                "col_group": "Northern Appalachians",
                "col_group_id": 9,
                "group_col_id": "23.00",
                "lat": "41.54300",
                "lng": "-75.20000",
                "col_area": "11981.7",
                "project_id": 1,
                "col_type": "column",
                "refs": [
                    1
                ]
            },
            {
                "col_id": 307,
                "col_name": "Eastern Pennsylvania",
                "col_group": "Northern Appalachians",
                "col_group_id": 9,
                "group_col_id": "24.00",
                "lat": "40.96100",
                "lng": "-75.81000",
                "col_area": "11732.2",
                "project_id": 1,
                "col_type": "column",
                "refs": [
                    1
                ]
            },
            {
                "col_id": 308,
                "col_name": "Northwestern New Jersey",
                "col_group": "Northern Appalachians",
                "col_group_id": 9,
                "group_col_id": "25.00",
                "lat": "40.68600",
                "lng": "-74.87500",
                "col_area": "2982.2",
                "project_id": 1,
                "col_type": "column",
                "refs": [
                    1
                ]
            },
            {
                "col_id": 316,
                "col_name": "Yukon-Koyukuk Basin",
                "col_group": "Southern Alaska",
                "col_group_id": 16,
                "group_col_id": "1.00",
                "lat": "64.97100",
                "lng": "-158.13100",
                "col_area": "91531.1",
                "project_id": 1,
                "col_type": "column",
                "refs": [
                    1
                ]
            },
            {
                "col_id": 317,
                "col_name": "Northern Kuskokwim Mountains",
                "col_group": "Southern Alaska",
                "col_group_id": 16,
                "group_col_id": "2.00",
                "lat": "64.91400",
                "lng": "-153.32600",
                "col_area": "46643.3",
                "project_id": 1,
                "col_type": "column",
                "refs": [
                    1
                ]
            },
            {
                "col_id": 322,
                "col_name": "Kanektok River",
                "col_group": "Southern Alaska",
                "col_group_id": 16,
                "group_col_id": "7.00",
                "lat": "59.57100",
                "lng": "-161.01600",
                "col_area": "111482.0",
                "project_id": 1,
                "col_type": "column",
                "refs": [
                    1
                ]
            },
            {
                "col_id": 323,
                "col_name": "Tikchik Lakes",
                "col_group": "Southern Alaska",
                "col_group_id": 16,
                "group_col_id": "8.00",
                "lat": "60.23000",
                "lng": "-159.34100",
                "col_area": "75593.2",
                "project_id": 1,
                "col_type": "column",
                "refs": [
                    1
                ]
            },
            {
                "col_id": 324,
                "col_name": "Boulder Mountains Wood River and Central Pioneer Mountains, Central Idaho",
                "col_group": "Northern Rockies",
                "col_group_id": 13,
                "group_col_id": "1.00",
                "lat": "44.15000",
                "lng": "-114.35300",
                "col_area": "26877.2",
                "project_id": 1,
                "col_type": "column",
                "refs": [
                    1
                ]
            },
            {
                "col_id": 325,
                "col_name": "White Knob Mountains, Lost River and Lemhi Range, Central Idaho",
                "col_group": "Northern Rockies",
                "col_group_id": 13,
                "group_col_id": "2.00",
                "lat": "44.37500",
                "lng": "-113.48000",
                "col_area": "25030.0",
                "project_id": 1,
                "col_type": "column",
                "refs": [
                    1
                ]
            },
            {
                "col_id": 329,
                "col_name": "Glacier National Park Area, Northwestern Montana",
                "col_group": "Northern Rockies",
                "col_group_id": 13,
                "group_col_id": "6.00",
                "lat": "48.54400",
                "lng": "-113.83400",
                "col_area": "13493.5",
                "project_id": 1,
                "col_type": "column",
                "refs": [
                    1
                ]
            },
            {
                "col_id": 330,
                "col_name": "Southern Disturbed Belt, Northwestern Montana",
                "col_group": "Northern Rockies",
                "col_group_id": 13,
                "group_col_id": "7.00",
                "lat": "47.31600",
                "lng": "-112.72800",
                "col_area": "18357.9",
                "project_id": 1,
                "col_type": "column",
                "refs": [
                    1
                ]
            },
            {
                "col_id": 331,
                "col_name": "Missoula (pe, Te, Q Only), Drummond - Helena Area, Central Western Montana",
                "col_group": "Northern Rockies",
                "col_group_id": 13,
                "group_col_id": "8.00",
                "lat": "46.43500",
                "lng": "-112.89900",
                "col_area": "27302.2",
                "project_id": 1,
                "col_type": "column",
                "refs": [
                    1
                ]
            },
            {
                "col_id": 332,
                "col_name": "Butte - Bozeman and South, Southwestern Montana",
                "col_group": "Northern Rockies",
                "col_group_id": 13,
                "group_col_id": "9.00",
                "lat": "45.43500",
                "lng": "-112.11800",
                "col_area": "29450.6",
                "project_id": 1,
                "col_type": "column",
                "refs": [
                    1
                ]
            },
            {
                "col_id": 334,
                "col_name": "East Flank Sweetgrass Arch and Disturbed Belt, Northwest Montana",
                "col_group": "Northern Rockies",
                "col_group_id": 13,
                "group_col_id": "11.00",
                "lat": "48.43200",
                "lng": "-110.88800",
                "col_area": "27289.6",
                "project_id": 1,
                "col_type": "column",
                "refs": [
                    1
                ]
            },
            {
                "col_id": 349,
                "col_name": "Talladega Slate Belt, Alabama",
                "col_group": "Piedmont-Blue Ridge",
                "col_group_id": 15,
                "group_col_id": "1.00",
                "lat": "33.23300",
                "lng": "-86.04100",
                "col_area": "9362.8",
                "project_id": 1,
                "col_type": "column",
                "refs": [
                    1
                ]
            },
            {
                "col_id": 370,
                "col_name": "Taconic Mountains Autochthonous Strata",
                "col_group": "Northeast United States",
                "col_group_id": 11,
                "group_col_id": "3.00",
                "lat": "42.82600",
                "lng": "-73.53300",
                "col_area": "7488.6",
                "project_id": 1,
                "col_type": "column",
                "refs": [
                    1
                ]
            },
            {
                "col_id": 372,
                "col_name": "Western Massachusetts West Side - Berkshire Anticlinorium",
                "col_group": "Northeast United States",
                "col_group_id": 11,
                "group_col_id": "5.00",
                "lat": "42.47600",
                "lng": "-73.22000",
                "col_area": "4599.9",
                "project_id": 1,
                "col_type": "column",
                "refs": [
                    1
                ]
            },
            {
                "col_id": 383,
                "col_name": "Northeastern Maine",
                "col_group": "Northeast United States",
                "col_group_id": 11,
                "group_col_id": "16.00",
                "lat": "46.64100",
                "lng": "-68.29600",
                "col_area": "12425.9",
                "project_id": 1,
                "col_type": "column",
                "refs": [
                    1
                ]
            },
            {
                "col_id": 392,
                "col_name": "East - Central Maine",
                "col_group": "Northeast United States",
                "col_group_id": 11,
                "group_col_id": "25.00",
                "lat": "45.26100",
                "lng": "-69.02100",
                "col_area": "13146.6",
                "project_id": 1,
                "col_type": "column",
                "refs": [
                    1
                ]
            },
            {
                "col_id": 393,
                "col_name": "Seward Peninsula",
                "col_group": "Northern Alaska",
                "col_group_id": 8,
                "group_col_id": "23.00",
                "lat": "65.46800",
                "lng": "-163.46600",
                "col_area": "136570.2",
                "project_id": 1,
                "col_type": "column",
                "refs": [
                    1
                ]
            },
            {
                "col_id": 395,
                "col_name": "West Charley River",
                "col_group": "Northern Alaska",
                "col_group_id": 8,
                "group_col_id": "25.00",
                "lat": "65.91500",
                "lng": "-144.12500",
                "col_area": "21481.9",
                "project_id": 1,
                "col_type": "column",
                "refs": [
                    1
                ]
            },
            {
                "col_id": 396,
                "col_name": "East Charley River",
                "col_group": "Northern Alaska",
                "col_group_id": 8,
                "group_col_id": "26.00",
                "lat": "66.05400",
                "lng": "-141.52600",
                "col_area": "29079.8",
                "project_id": 1,
                "col_type": "column",
                "refs": [
                    1
                ]
            },
            {
                "col_id": 397,
                "col_name": "Yukon River Ot White Mountain",
                "col_group": "Northern Alaska",
                "col_group_id": 8,
                "group_col_id": "27.00",
                "lat": "65.88200",
                "lng": "-147.66800",
                "col_area": "31069.2",
                "project_id": 1,
                "col_type": "column",
                "refs": [
                    1
                ]
            },
            {
                "col_id": 398,
                "col_name": "White Mountain to Chena River",
                "col_group": "Northern Alaska",
                "col_group_id": 8,
                "group_col_id": "28.00",
                "lat": "65.00100",
                "lng": "-146.08300",
                "col_area": "19995.6",
                "project_id": 1,
                "col_type": "column",
                "refs": [
                    1
                ]
            },
            {
                "col_id": 399,
                "col_name": "Chena River to Shaw Creek Fault",
                "col_group": "Northern Alaska",
                "col_group_id": 8,
                "group_col_id": "29.00",
                "lat": "64.66600",
                "lng": "-144.37100",
                "col_area": "20761.9",
                "project_id": 1,
                "col_type": "column",
                "refs": [
                    1
                ]
            },
            {
                "col_id": 400,
                "col_name": "Shaw Creek Fault to Yukon Border",
                "col_group": "Northern Alaska",
                "col_group_id": 8,
                "group_col_id": "30.00",
                "lat": "63.64500",
                "lng": "-141.95900",
                "col_area": "30871.8",
                "project_id": 1,
                "col_type": "column",
                "refs": [
                    1
                ]
            },
            {
                "col_id": 405,
                "col_name": "Cook Inlet",
                "col_group": "Southern Alaska",
                "col_group_id": 16,
                "group_col_id": "13.00",
                "lat": "60.00000",
                "lng": "-152.50800",
                "col_area": "51479.7",
                "project_id": 1,
                "col_type": "column",
                "refs": [
                    1
                ]
            },
            {
                "col_id": 409,
                "col_name": "Central Alaska Range South of Denali Fault, Maclaren Terrane",
                "col_group": "Southern Alaska",
                "col_group_id": 16,
                "group_col_id": "17.00",
                "lat": "63.34000",
                "lng": "-145.83100",
                "col_area": "15112.6",
                "project_id": 1,
                "col_type": "column",
                "refs": [
                    1
                ]
            },
            {
                "col_id": 410,
                "col_name": "Northern Wrangell Mountains, Nebesna Quadrangle",
                "col_group": "Southern Alaska",
                "col_group_id": 16,
                "group_col_id": "18.00",
                "lat": "62.39200",
                "lng": "-142.41800",
                "col_area": "22192.3",
                "project_id": 1,
                "col_type": "column",
                "refs": [
                    1
                ]
            },
            {
                "col_id": 411,
                "col_name": "Southern Wrangell Mountains, Mccarthy Quadrangle",
                "col_group": "Southern Alaska",
                "col_group_id": 16,
                "group_col_id": "19.00",
                "lat": "61.21700",
                "lng": "-141.98600",
                "col_area": "14899.8",
                "project_id": 1,
                "col_type": "column",
                "refs": [
                    1
                ]
            },
            {
                "col_id": 413,
                "col_name": "Chugach Mountains South of Border Ranges Fault",
                "col_group": "Southern Alaska",
                "col_group_id": 16,
                "group_col_id": "21.00",
                "lat": "60.95800",
                "lng": "-148.72300",
                "col_area": "34145.5",
                "project_id": 1,
                "col_type": "column",
                "refs": [
                    1
                ]
            },
            {
                "col_id": 414,
                "col_name": "Kodiak Island",
                "col_group": "Southern Alaska",
                "col_group_id": 16,
                "group_col_id": "22.00",
                "lat": "57.55900",
                "lng": "-153.39700",
                "col_area": "38226.5",
                "project_id": 1,
                "col_type": "column",
                "refs": [
                    1
                ]
            },
            {
                "col_id": 424,
                "col_name": "Kuiu - Kupreanof Island, Southeast Alaska",
                "col_group": "Southern Alaska",
                "col_group_id": 16,
                "group_col_id": "32.00",
                "lat": "56.73800",
                "lng": "-133.80600",
                "col_area": "26979.6",
                "project_id": 1,
                "col_type": "column",
                "refs": [
                    1
                ]
            },
            {
                "col_id": 426,
                "col_name": "Southern Prince of Wales Island Hydaburg Area Southeast Alaska",
                "col_group": "Southern Alaska",
                "col_group_id": 16,
                "group_col_id": "34.00",
                "lat": "55.09400",
                "lng": "-132.33500",
                "col_area": "29990.5",
                "project_id": 1,
                "col_type": "column",
                "refs": [
                    1
                ]
            },
            {
                "col_id": 427,
                "col_name": "Northern Peninsula - NW Michigan",
                "col_group": "Midwestern Basins and Arches",
                "col_group_id": 6,
                "group_col_id": "2.00",
                "lat": "46.37300",
                "lng": "-85.76600",
                "col_area": "52855.8",
                "project_id": 1,
                "col_type": "column",
                "refs": [
                    1
                ]
            },
            {
                "col_id": 428,
                "col_name": "Southern Peninsula - N. Michigan",
                "col_group": "Midwestern Basins and Arches",
                "col_group_id": 6,
                "group_col_id": "3.00",
                "lat": "45.23800",
                "lng": "-84.53000",
                "col_area": "27521.1",
                "project_id": 1,
                "col_type": "column",
                "refs": [
                    1
                ]
            },
            {
                "col_id": 429,
                "col_name": "Southern Peninsula - Central Michigan",
                "col_group": "Midwestern Basins and Arches",
                "col_group_id": 6,
                "group_col_id": "4.00",
                "lat": "43.82500",
                "lng": "-84.96300",
                "col_area": "33887.0",
                "project_id": 1,
                "col_type": "column",
                "refs": [
                    1
                ]
            },
            {
                "col_id": 430,
                "col_name": "Southern Peninsula - Sw Michigan",
                "col_group": "Midwestern Basins and Arches",
                "col_group_id": 6,
                "group_col_id": "5.00",
                "lat": "42.42100",
                "lng": "-85.68300",
                "col_area": "26098.6",
                "project_id": 1,
                "col_type": "column",
                "refs": [
                    1
                ]
            },
            {
                "col_id": 431,
                "col_name": "Southern Peninsula - S.E. Michigan",
                "col_group": "Midwestern Basins and Arches",
                "col_group_id": 6,
                "group_col_id": "6.00",
                "lat": "42.41600",
                "lng": "-83.80300",
                "col_area": "25142.7",
                "project_id": 1,
                "col_type": "column",
                "refs": [
                    1
                ]
            },
            {
                "col_id": 432,
                "col_name": "Northern Arches to Illinois Basin - Northern and Western Illinois",
                "col_group": "Midwestern Basins and Arches",
                "col_group_id": 6,
                "group_col_id": "7.00",
                "lat": "41.24000",
                "lng": "-89.33300",
                "col_area": "42690.2",
                "project_id": 1,
                "col_type": "column",
                "refs": [
                    1
                ]
            },
            {
                "col_id": 433,
                "col_name": "Illinois Basin - Southwestern Illinois",
                "col_group": "Midwestern Basins and Arches",
                "col_group_id": 6,
                "group_col_id": "8.00",
                "lat": "39.28300",
                "lng": "-90.32300",
                "col_area": "27448.7",
                "project_id": 1,
                "col_type": "column",
                "refs": [
                    1
                ]
            },
            {
                "col_id": 434,
                "col_name": "Illinois Basin - Southeastern Illinois",
                "col_group": "Midwestern Basins and Arches",
                "col_group_id": 6,
                "group_col_id": "9.00",
                "lat": "38.64600",
                "lng": "-88.92300",
                "col_area": "23313.0",
                "project_id": 1,
                "col_type": "column",
                "refs": [
                    1
                ]
            },
            {
                "col_id": 435,
                "col_name": "Illinois Basin - Eastern Illinois",
                "col_group": "Midwestern Basins and Arches",
                "col_group_id": 6,
                "group_col_id": "10.00",
                "lat": "39.34100",
                "lng": "-87.74100",
                "col_area": "26387.0",
                "project_id": 1,
                "col_type": "column",
                "refs": [
                    1
                ]
            },
            {
                "col_id": 436,
                "col_name": "Illinois Basin - Southwestern Indiana",
                "col_group": "Midwestern Basins and Arches",
                "col_group_id": 6,
                "group_col_id": "11.00",
                "lat": "38.63300",
                "lng": "-87.07300",
                "col_area": "11759.3",
                "project_id": 1,
                "col_type": "column",
                "refs": [
                    1
                ]
            },
            {
                "col_id": 437,
                "col_name": "Illinois Basin - West-central to South-central Indiana",
                "col_group": "Midwestern Basins and Arches",
                "col_group_id": 6,
                "group_col_id": "12.00",
                "lat": "39.42500",
                "lng": "-86.24100",
                "col_area": "15421.7",
                "project_id": 1,
                "col_type": "column",
                "refs": [
                    1
                ]
            },
            {
                "col_id": 438,
                "col_name": "Cincinnati and Kankakee Arches - Southeastern Indiana",
                "col_group": "Midwestern Basins and Arches",
                "col_group_id": 6,
                "group_col_id": "13.00",
                "lat": "39.09100",
                "lng": "-85.33300",
                "col_area": "14293.1",
                "project_id": 1,
                "col_type": "column",
                "refs": [
                    1
                ]
            },
            {
                "col_id": 439,
                "col_name": "Cincinnati and Kankakee Arches - Northwestern to East-central Indiana",
                "col_group": "Midwestern Basins and Arches",
                "col_group_id": 6,
                "group_col_id": "14.00",
                "lat": "40.81600",
                "lng": "-86.12500",
                "col_area": "25961.0",
                "project_id": 1,
                "col_type": "column",
                "refs": [
                    1
                ]
            },
            {
                "col_id": 440,
                "col_name": "Michigan Basin-findlay Arch - Northern Indiana",
                "col_group": "Midwestern Basins and Arches",
                "col_group_id": 6,
                "group_col_id": "15.00",
                "lat": "41.52500",
                "lng": "-85.83800",
                "col_area": "18821.5",
                "project_id": 1,
                "col_type": "column",
                "refs": [
                    1
                ]
            },
            {
                "col_id": 441,
                "col_name": "Michigan Basin-finlay Arch - Northwestern Ohio",
                "col_group": "Midwestern Basins and Arches",
                "col_group_id": 6,
                "group_col_id": "16.00",
                "lat": "41.04100",
                "lng": "-83.61300",
                "col_area": "13055.0",
                "project_id": 1,
                "col_type": "column",
                "refs": [
                    1
                ]
            },
            {
                "col_id": 442,
                "col_name": "Cincinnati Arch - Central-western Ohio",
                "col_group": "Midwestern Basins and Arches",
                "col_group_id": 6,
                "group_col_id": "17.00",
                "lat": "40.45000",
                "lng": "-84.27800",
                "col_area": "16966.9",
                "project_id": 1,
                "col_type": "column",
                "refs": [
                    1
                ]
            },
            {
                "col_id": 443,
                "col_name": "Cincinnati Arch - Southwestern Ohio",
                "col_group": "Midwestern Basins and Arches",
                "col_group_id": 6,
                "group_col_id": "18.00",
                "lat": "39.43300",
                "lng": "-84.11600",
                "col_area": "12679.6",
                "project_id": 1,
                "col_type": "column",
                "refs": [
                    1
                ]
            },
            {
                "col_id": 444,
                "col_name": "Illinois Basin-western Kentucky - North of Rough Creek Fault",
                "col_group": "Midwestern Basins and Arches",
                "col_group_id": 6,
                "group_col_id": "19.00",
                "lat": "37.79500",
                "lng": "-86.83600",
                "col_area": "9360.0",
                "project_id": 1,
                "col_type": "column",
                "refs": [
                    1
                ]
            },
            {
                "col_id": 445,
                "col_name": "Illinois Basin-western Kentucky - South of Rough Creek Fault",
                "col_group": "Midwestern Basins and Arches",
                "col_group_id": 6,
                "group_col_id": "20.00",
                "lat": "37.46700",
                "lng": "-87.55800",
                "col_area": "14356.6",
                "project_id": 1,
                "col_type": "column",
                "refs": [
                    1
                ]
            },
            {
                "col_id": 446,
                "col_name": "Illinois Basin-western Kentucky - South of Pennyrile Fault",
                "col_group": "Midwestern Basins and Arches",
                "col_group_id": 6,
                "group_col_id": "21.00",
                "lat": "36.80600",
                "lng": "-87.50000",
                "col_area": "11712.1",
                "project_id": 1,
                "col_type": "column",
                "refs": [
                    1
                ]
            },